SALE TYPE,SOLD DATE,PROPERTY TYPE,ADDRESS,CITY,STATE OR PROVINCE,ZIP OR POSTAL CODE,PRICE,BEDS,BATHS,LOCATION,SQUARE FEET,LOT SIZE,YEAR BUILT,DAYS ON MARKET,$/SQUARE FEET,HOA/MONTH,STATUS,NEXT OPEN HOUSE START TIME,NEXT OPEN HOUSE END TIME,URL (SEE http://www.redfin.com/buy-a-home/comparative-market-analysis FOR INFO ON PRICING),SOURCE,MLS#,FAVORITE,INTERESTED,LATITUDE,LONGITUDE
MLS Listing,,Condo/Co-op,545 Ashbury St #2,San Francisco,CA,94117,849000,1,1.0,San Francisco,,2500,1900,18,,338,Active,,,http://www.redfin.com/CA/San-Francisco/545-Ashbury-St-94117/unit-2/home/114072474,San Francisco MLS,421523837,N,Y,37.7702626,-122.4472325
MLS Listing,,Single Family Residential,336 Bradford St,San Francisco,CA,94110,1140000,3,2.0,San Francisco,1450,1572,1927,28,786,,Active,,,http://www.redfin.com/CA/San-Francisco/336-Bradford-St-94110/home/966133,San Francisco MLS,421521361,N,Y,37.7375892,-122.40986
MLS Listing,,Condo/Co-op,5800 3Rd St #1211,San Francisco,CA,94124,680000,1,1.0,Portola District,817,,2010,28,832,432,Active,,,http://www.redfin.com/CA/San-Francisco/5800-3rd-St-94124/unit-1211/home/40625857,"bridgeMLS, Bay East AOR, or Contra Costa AOR",40938478,N,Y,37.7250528,-122.3951255
MLS Listing,,Condo/Co-op,855 Folsom St #510,San Francisco,CA,94107,975000,1,1.5,San Francisco,1030,55687,2001,31,947,722,Active,,,http://www.redfin.com/CA/San-Francisco/855-Folsom-St-94107/unit-510/home/12398153,San Francisco MLS,421520348,N,Y,37.7807672,-122.4021418
MLS Listing,,Condo/Co-op,1635 California St #24,San Francisco,CA,94109,899000,2,2.0,San Francisco,915,,2005,63,983,639,Active,,,http://www.redfin.com/CA/San-Francisco/1635-California-St-94109/unit-24/home/12277015,San Francisco MLS,511753,N,Y,37.7901833,-122.4213456
MLS Listing,,Condo/Co-op,1370 Hayes St #1372,San Francisco,CA,94117,1450000,4,2.5,San Francisco,1706,,1900,178,850,286,Active,,,http://www.redfin.com/CA/San-Francisco/1370-Hayes-St-94117/unit-1372/home/148065731,San Francisco MLS,506674,N,Y,37.775124,-122.439022
PAST SALE,,Condo/Co-op,1 Buena Vista Ave E Unit 1A,San Francisco,CA,94117,618000,,1.0,,,2495,1950,,,,Off Market,,,http://www.redfin.com/CA/San-Francisco/143-Valmar-Ter-94112/home/1026409,Coming Soon,,N,Y,37.7252771,-122.4245985
MLS Listing,,Multi-Family (2-4 Unit),558 - 560 17th Ave,San Francisco,CA,94121,1880000,5,1.0,San Francisco,1990,2996,1916,1,945,,Active,,,http://www.redfin.com/CA/San-Francisco/558-17th-Ave-94121/home/1435902,San Francisco MLS,421530407,N,Y,37.7774643,-122.4756189
MLS Listing,,Condo/Co-op,400 Beale St #1904,San Francisco,CA,94105,898000,1,1.0,San Francisco,832,27581,2001,1,1079,895,Active,,,http://www.redfin.com/CA/San-Francisco/400-Beale-St-94105/unit-1904/home/12399585,San Francisco MLS,421529746,N,Y,37.7869049,-122.3909202
MLS Listing,,Condo/Co-op,250 King St #780,San Francisco,CA,94107,1135000,2,2.0,San Francisco,1142,,2004,1,994,899,Active,,,http://www.redfin.com/CA/San-Francisco/250-King-St-94107/unit-780/home/22889374,San Francisco MLS,506836,N,Y,37.7776422,-122.3934181
MLS Listing,,Single Family Residential,785 Colby St,San Francisco,CA,94134,1198000,3,2.0,San Francisco,1323,1750,1955,1,906,,Active,,,http://www.redfin.com/CA/San-Francisco/785-Colby-St-94134/home/897801,San Francisco MLS,421527370,N,Y,37.7207371,-122.4104242
MLS Listing,,Condo/Co-op,200 Brannan St #243,San Francisco,CA,94107,1495000,2,2.0,San Francisco,1522,72899,2004,1,982,884,Active,,,http://www.redfin.com/CA/San-Francisco/200-Brannan-St-94107/unit-243/home/1303843,San Francisco MLS,421528831,N,Y,37.7836002,-122.3907074
MLS Listing,,Condo/Co-op,1360 Montgomery St #11,SAN FRANCISCO,CA,94133,5995000,2,2.0,SAN FRANCISCO,1538,,1936,1,3898,1172,Active,,,http://www.redfin.com/CA/San-Francisco/1360-Montgomery-St-94133/unit-11/home/1466173,MLSListings,ML81834969,N,Y,37.8017977,-122.4043238
MLS Listing,,Single Family Residential,2054 31st Ave,San Francisco,CA,94116,1398000,3,1.5,San Francisco,1826,2996,1946,1,766,,Active,,,http://www.redfin.com/CA/San-Francisco/2054-31st-Ave-94116/home/651390,San Francisco MLS,421529642,N,Y,37.7489182,-122.4887037
MLS Listing,,Condo/Co-op,75 Folsom St #800,San Francisco,CA,94105,969000,1,1.0,San Francisco,1019,,1991,1,951,1193,Active,,,http://www.redfin.com/CA/San-Francisco/75-Folsom-St-94105/unit-800/home/723457,San Francisco MLS,421530220,N,Y,37.7898032,-122.3897573
MLS Listing,,Condo/Co-op,1817 California St #204,San Francisco,CA,94109,825000,2,1.5,San Francisco,716,,1960,1,1152,518,Active,,,http://www.redfin.com/CA/San-Francisco/1817-California-St-94109/unit-204/home/1659204,San Francisco MLS,421530186,N,Y,37.78956,-122.4245359
MLS Listing,,Multi-Family (2-4 Unit),338 - 340 Divisadero St,San Francisco,CA,94117,2395000,4,,San Francisco,4085,2687,1900,1,586,,Active,,,http://www.redfin.com/CA/San-Francisco/338-Divisadero-St-94117/home/174755418,San Francisco MLS,421530234,N,Y,37.7727795,-122.4370186
MLS Listing,,Single Family Residential,210 Yerba Buena Ave,San Francisco,CA,94127,1377000,2,2.0,San Francisco,1550,3972,,1,888,,Active,,,http://www.redfin.com/CA/San-Francisco/210-Yerba-Buena-Ave-94127/home/1889924,San Francisco MLS,421526947,N,Y,37.7349208,-122.4604573
MLS Listing,,Condo/Co-op,426 Fillmore St Unit B,SAN FRANCISCO,CA,94117,1395000,2,2.0,SAN FRANCISCO,1200,2500,1988,1,1163,252,Active,,,http://www.redfin.com/CA/San-Francisco/426-Fillmore-St-94117/unit-B/home/1699884,MLSListings,ML81834952,N,Y,37.7734754,-122.4304756
MLS Listing,,Condo/Co-op,935 Filbert St #3,San Francisco,CA,94133,965000,1,1.0,San Francisco,1012,3781,1979,1,954,232,Active,,,http://www.redfin.com/CA/San-Francisco/935-Filbert-St-94133/unit-3/home/539869,San Francisco MLS,421529873,N,Y,37.8004739,-122.414908
MLS Listing,,Single Family Residential,421 Urbano Dr,San Francisco,CA,94127,1928000,4,2.5,San Francisco,2434,5144,1951,1,792,,Active,,,http://www.redfin.com/CA/San-Francisco/421-Urbano-Dr-94127/home/1105181,San Francisco MLS,421529493,N,Y,37.7243906,-122.4697447
MLS Listing,,Multi-Family (2-4 Unit),957 - 959 Church St,San Francisco,CA,94114,2595000,4,3.0,San Francisco,3595,2517,1940,1,722,,Active,,,http://www.redfin.com/CA/San-Francisco/957-Church-St-94114/home/1502176,San Francisco MLS,421529874,N,Y,37.7556185,-122.4275148
MLS Listing,,Condo/Co-op,845 Montgomery St Unit G,San Francisco,CA,94133,1395000,2,2.0,San Francisco,1026,6870,1911,1,1360,1171,Active,,,http://www.redfin.com/CA/San-Francisco/845-Montgomery-St-94133/unit-G/home/23455094,San Francisco MLS,421529877,N,Y,37.7969379,-122.4038359
MLS Listing,,Condo/Co-op,1114 Church St,San Francisco,CA,94114,839000,2,1.0,San Francisco,980,2622,1908,1,856,200,Active,,,http://www.redfin.com/CA/San-Francisco/1114-Church-St-94114/home/174754738,San Francisco MLS,421527995,N,Y,37.7530675,-122.4277555
MLS Listing,,Condo/Co-op,1435 South Van Ness Ave,San Francisco,CA,94110,1085000,2,1.0,San Francisco,1265,2884,1908,1,858,500,Active,,,http://www.redfin.com/CA/San-Francisco/1435-S-Van-Ness-Ave-94110/home/40138470,San Francisco MLS,421529885,N,Y,37.7502296,-122.4158985
MLS Listing,,Condo/Co-op,1160 Mission St #1005,San Francisco,CA,94103,308053,1,1.0,San Francisco,662,43557,2008,1,465,739,Active,,,http://www.redfin.com/CA/San-Francisco/1160-Mission-St-94103/unit-1005/home/17304454,San Francisco MLS,421530134,N,Y,37.7787037,-122.4126341
MLS Listing,,Condo/Co-op,301 Mission St Unit 48F,San Francisco,CA,94105,2495000,2,2.0,San Francisco,1605,50667,2009,1,1555,2644,Active,,,http://www.redfin.com/CA/San-Francisco/301-Mission-St-94105/unit-48F/home/40138862,San Francisco MLS,421528645,N,Y,37.7903824,-122.3961531
MLS Listing,,Multi-Family (2-4 Unit),377 - 379 Capp St,San Francisco,CA,94110,3749000,7,3.0,San Francisco,4557,3675,1911,1,823,,Active,,,http://www.redfin.com/CA/San-Francisco/377-Capp-St-94110/home/714157,San Francisco MLS,421529501,N,Y,37.7606952,-122.4178392
MLS Listing,,Condo/Co-op,3760 21st St,San Francisco,CA,94114,1249000,2,2.0,San Francisco,,2850,1907,1,,400,Active,,,http://www.redfin.com/CA/San-Francisco/3760-21st-St-94114/home/58811832,San Francisco MLS,421529343,N,Y,37.7564371,-122.4314765
MLS Listing,,Multi-Family (2-4 Unit),4008 - 4012 24th St,San Francisco,CA,94114,2699000,2,,San Francisco,2820,1210,1924,1,957,,Active,,,http://www.redfin.com/CA/San-Francisco/4008-24th-St-94114/home/973914,San Francisco MLS,421529011,N,Y,37.7515256,-122.4322644
MLS Listing,,Single Family Residential,986 Ingerson Ave,San Francisco,CA,94124,986000,4,2.0,San Francisco,1735,2495,1928,1,568,,Active,,,http://www.redfin.com/CA/San-Francisco/986-Ingerson-Ave-94124/home/1113536,San Francisco MLS,421528997,N,Y,37.71915,-122.392555
MLS Listing,,Condo/Co-op,338 Main St Ph 36B,San Francisco,CA,94105,9150000,3,3.5,San Francisco,3800,,2016,1,2408,2450,Active,,,http://www.redfin.com/CA/San-Francisco/338-Main-St-94105/unit-36B/home/110052551,San Francisco MLS,421530085,N,Y,37.7886733,-122.3914178
MLS Listing,,Multi-Family (2-4 Unit),4500 Mission St,San Francisco,CA,94112,5561854,19,6.5,San Francisco,11146,4996,1928,1,499,,Active,,,http://www.redfin.com/CA/San-Francisco/4500-Mission-St-94112/home/84246149,San Francisco MLS,421529466,N,Y,37.725775,-122.434341
MLS Listing,,Multi-Family (2-4 Unit),201 - 203 Virginia Ave,San Francisco,CA,94110,1895000,6,3.0,San Francisco,3055,1846,1900,1,620,,Active,,,http://www.redfin.com/CA/San-Francisco/201-Virginia-Ave-94110/home/757376,San Francisco MLS,421523748,N,Y,37.7424206,-122.4192124
MLS Listing,,Condo/Co-op,201 Harrison St #526,San Francisco,CA,94105,895000,1,1.0,San Francisco,795,38449,1991,1,1126,720,Active,,,http://www.redfin.com/CA/San-Francisco/201-Harrison-St-94105/unit-526/home/1774460,San Francisco MLS,421528806,N,Y,37.7875875,-122.3904715
MLS Listing,,Condo/Co-op,1000 North Point St #1407,San Francisco,CA,94109,1650000,2,1.0,San Francisco,,26400,,1,,1551,Active,,,http://www.redfin.com/CA/San-Francisco/1000-N-Point-St-94109/unit-1407/home/12395398,San Francisco MLS,421529004,N,Y,37.8055099,-122.4241573
MLS Listing,,Condo/Co-op,1490 Ocean Ave #201,San Francisco,CA,94112,1350000,3,2.0,San Francisco,1282,9941,2017,1,1053,863,Active,,,http://www.redfin.com/CA/San-Francisco/1490-Ocean-Ave-94112/unit-201/home/113746701,San Francisco MLS,421528257,N,Y,37.7245784,-122.4578258
MLS Listing,,Condo/Co-op,77 Dow Pl #710,San Francisco,CA,94107,898000,1,1.5,San Francisco,1164,18962,2002,1,771,868,Active,,,http://www.redfin.com/CA/San-Francisco/77-Dow-Pl-94107/unit-710/home/1398599,San Francisco MLS,421522942,N,Y,37.7841561,-122.3966189
MLS Listing,,Condo/Co-op,2444 Clay St,San Francisco,CA,94115,2999000,4,2.5,San Francisco,2600,,1900,1,1153,344,Active,,,http://www.redfin.com/CA/San-Francisco/2444-Clay-St-94115/home/567665,San Francisco MLS,512229,N,Y,37.791091,-122.433361
MLS Listing,,Multi-Family (5+ Unit),436 - 438 Tehama St,San Francisco,CA,94103,2500000,4,2.0,San Francisco,3600,1875,1907,1,694,,Active,,,http://www.redfin.com/CA/San-Francisco/436-Tehama-St-94103/home/1558230,San Francisco MLS,421530075,N,Y,37.780502,-122.4054095
MLS Listing,,Condo/Co-op,1 Crescent Way #1104,SAN FRANCISCO,CA,94134,599000,1,1.0,SAN FRANCISCO,814,,2001,1,736,497,Active,,,http://www.redfin.com/CA/San-Francisco/1-Crescent-Way-94134/unit-1104/home/873959,MLSListings,ML81834869,N,Y,37.7108396,-122.3901806
MLS Listing,,Condo/Co-op,181 Fremont Unit 62B,San Francisco,CA,94105,6880000,3,3.5,San Francisco,2263,,2018,1,3040,3051,Active,,,http://www.redfin.com/CA/San-Francisco/181-Fremont-St-94105/unit-62B/home/167299465,San Francisco MLS,421529878,N,Y,37.7898082,-122.3953565
MLS Listing,,Condo/Co-op,1380 Church St,San Francisco,CA,94114,1795000,4,2.0,San Francisco,2287,,,1,785,,Active,,,http://www.redfin.com/CA/San-Francisco/1380-Church-St-94114/home/174720810,San Francisco MLS,421524288,N,Y,37.7487816,-122.4273933
MLS Listing,,Single Family Residential,827 33rd Ave,San Francisco,CA,94121,1375000,2,1.5,San Francisco,1567,3840,1922,1,877,,Active,,,http://www.redfin.com/CA/San-Francisco/827-33rd-Ave-94121/home/622191,San Francisco MLS,421529079,N,Y,37.7733663,-122.49311
MLS Listing,,Multi-Family (2-4 Unit),1239 - 1241 19th Ave,San Francisco,CA,94122,1850000,6,4.0,San Francisco,2717,2250,1908,1,681,,Active,,,http://www.redfin.com/CA/San-Francisco/1239-19th-Ave-94122/home/2010561,San Francisco MLS,421529179,N,Y,37.7646556,-122.4775555
MLS Listing,,Single Family Residential,325 Wayland St,San Francisco,CA,94134,1799000,5,4.0,San Francisco,3765,3750,2004,1,478,,Active,,,http://www.redfin.com/CA/San-Francisco/325-Wayland-St-94134/home/12396654,San Francisco MLS,421529822,N,Y,37.7256371,-122.4054793
MLS Listing,,Single Family Residential,1548 Noe St,San Francisco,CA,94131,2349000,4,3.5,San Francisco,,1590,1910,1,,,Active,,,http://www.redfin.com/CA/San-Francisco/1548-Noe-St-94131/home/1114782,San Francisco MLS,421526511,N,Y,37.7443451,-122.4314188
MLS Listing,,Condo/Co-op,300 3rd St #1416,SAN FRANCISCO,CA,94107,1088000,1,1.5,SAN FRANCISCO,837,,1990,1,1300,695,Active,,,http://www.redfin.com/CA/San-Francisco/300-3rd-St-94107/unit-1416/home/1024726,MLSListings,ML81834835,N,Y,37.7831802,-122.3990823
MLS Listing,,Single Family Residential,2501 Lincoln Way,San Francisco,CA,94122,1599000,4,2.0,San Francisco,2250,2696,1924,1,711,,Active,,,http://www.redfin.com/CA/San-Francisco/2501-Lincoln-Way-94122/home/1493106,San Francisco MLS,421529038,N,Y,37.7649417,-122.4850448
MLS Listing,,Single Family Residential,1019 Church St,San Francisco,CA,94114,3195000,4,2.5,San Francisco,3170,3249,1935,1,1008,,Active,,,http://www.redfin.com/CA/San-Francisco/1019-Church-St-94114/home/1502219,San Francisco MLS,421528694,N,Y,37.7545929,-122.4275027
MLS Listing,,Condo/Co-op,1374 Union St,San Francisco,CA,94109,3450000,3,3.5,San Francisco,3105,,1907,1,1111,650,Active,,,http://www.redfin.com/CA/San-Francisco/1374-Union-St-94109/home/62172295,San Francisco MLS,510327,N,Y,37.799042,-122.4217955
MLS Listing,,Multi-Family (2-4 Unit),1625 Palou Ave,San Francisco,CA,94124,1299900,,,San Francisco,2234,2500,1925,1,582,,Active,,,http://www.redfin.com/CA/San-Francisco/1625-Palou-Ave-94124/home/1301370,"bridgeMLS, Bay East AOR, or Contra Costa AOR",40941929,N,Y,37.7342029,-122.3916514
MLS Listing,,Condo/Co-op,765 Market St Unit 22C,San Francisco,CA,94103,1175000,1,1.0,Soma,792,,2001,1,1484,2148,Active,,,http://www.redfin.com/CA/San-Francisco/765-Market-St-94103/unit-22C/home/1482232,"bridgeMLS, Bay East AOR, or Contra Costa AOR",40940411,N,Y,37.786097,-122.4041629
MLS Listing,,Condo/Co-op,201 Folsom St Unit 18B,San Francisco,CA,94105,1695000,2,2.0,San Francisco,1189,75406,2016,1,1426,1214,Active,,,http://www.redfin.com/CA/San-Francisco/201-Folsom-St-94105/unit-18B/home/143319908,San Francisco MLS,421520956,N,Y,37.7887059,-122.3922385
MLS Listing,,Single Family Residential,56 Bitting Ave,San Francisco,CA,94124,1095000,5,3.5,San Francisco,2054,1500,1999,1,533,21,Active,,,http://www.redfin.com/CA/San-Francisco/56-Bitting-Ave-94124/home/1140644,San Francisco MLS,421529862,N,Y,37.7270508,-122.3983761
MLS Listing,,Single Family Residential,11 Clarendon Ave,San Francisco,CA,94114,4100000,4,3.5,San Francisco,3920,3974,1996,1,1046,,Active,,,http://www.redfin.com/CA/San-Francisco/11-Clarendon-Ave-94114/home/1280593,San Francisco MLS,421529373,N,Y,37.7587273,-122.4495454
MLS Listing,,Condo/Co-op,1934 Grove St,San Francisco,CA,94117,2295000,3,2.0,San Francisco,2136,3763,1923,1,1074,425,Active,,,http://www.redfin.com/CA/San-Francisco/1934-Grove-St-94117/home/40486564,San Francisco MLS,421528608,N,Y,37.7747369,-122.4485929
MLS Listing,,Condo/Co-op,1046 Sanchez St,San Francisco,CA,94114,1795000,3,1.0,San Francisco,1443,2650,1900,1,1244,400,Active,,,http://www.redfin.com/CA/San-Francisco/1046-Sanchez-St-94114/home/1526557,BAREIS,421526083,N,Y,37.752464,-122.430056
MLS Listing,,Condo/Co-op,236 Shipley St #303,San Francisco,CA,94107,649000,1,1.0,San Francisco,543,5444,2016,1,1195,575,Active,,,http://www.redfin.com/CA/San-Francisco/236-Shipley-94107/unit-303/home/107584465,San Francisco MLS,421524540,N,Y,37.7792278,-122.4038574
MLS Listing,,Condo/Co-op,2507 - A Polk St,San Francisco,CA,94109,1095000,2,2.0,San Francisco,1335,3281,1900,1,820,400,Active,,,http://www.redfin.com/CA/San-Francisco/2507a-Polk-St-94109/home/148067397,San Francisco MLS,421529224,N,Y,37.7999092,-122.4227212
MLS Listing,,Multi-Family (2-4 Unit),1520 Kirkwood,San Francisco,CA,94124,1119900,,,San Francisco,2863,2495,1950,1,391,,Active,,,http://www.redfin.com/CA/San-Francisco/1520-Kirkwood-Ave-94124/home/2024946,"bridgeMLS, Bay East AOR, or Contra Costa AOR",40941911,N,Y,37.7375269,-122.3883862
MLS Listing,,Condo/Co-op,139 Stillman St #4,San Francisco,CA,94107,715000,1,1.0,San Francisco,715,2915,2005,1,1000,516,Active,,,http://www.redfin.com/CA/San-Francisco/139-Stillman-St-94107/unit-4/home/11743120,San Francisco MLS,421529306,N,Y,37.7809111,-122.3971627
MLS Listing,,Single Family Residential,63 Niagara Ave,SAN FRANCISCO,CA,94112,850000,2,1.0,SAN FRANCISCO,1000,2722,1919,1,850,,Active,,,http://www.redfin.com/CA/San-Francisco/63-Niagara-Ave-94112/home/958278,MLSListings,ML81834784,N,Y,37.7164733,-122.4430745
MLS Listing,,Condo/Co-op,2448 Lombard St Unit 3B,San Francisco,CA,94123,2988000,3,3.0,San Francisco,2073,2073,2020,1,1441,869,Active,,,http://www.redfin.com/CA/San-Francisco/2448-Lombard-St-94123/unit-3B/home/174718565,San Francisco MLS,421529728,N,Y,37.7993413,-122.441967
MLS Listing,,Condo/Co-op,401 Harrison St Unit 41C,San Francisco,CA,94105,4250000,3,3.0,San Francisco,1940,,2014,1,2191,1581,Active,,,http://www.redfin.com/CA/San-Francisco/401-Harrison-St-94105/unit-41C/home/144064325,San Francisco MLS,421526068,N,Y,37.7864989,-122.3921487
MLS Listing,,Condo/Co-op,2194 Pacific Ave #2194,San Francisco,CA,94115,1100000,1,1.0,San Francisco,1095,2581,1950,1,1005,317,Active,,,http://www.redfin.com/CA/San-Francisco/2194-Pacific-Ave-94115/unit-2194/home/1188360,San Francisco MLS,421529019,N,Y,37.7939429,-122.4311982
MLS Listing,,Single Family Residential,25 Anzavista Ave,San Francisco,CA,94115,1795000,4,3.0,San Francisco,,4155,1953,1,,,Active,,,http://www.redfin.com/CA/San-Francisco/25-Anzavista-Ave-94115/home/1070657,San Francisco MLS,421528973,N,Y,37.7795611,-122.4423575
MLS Listing,,Single Family Residential,592 Wildwood Way,San Francisco,CA,94112,1475000,3,2.0,San Francisco,1500,3149,1955,1,983,,Active,,,http://www.redfin.com/CA/San-Francisco/592-Wildwood-Way-94112/home/696935,San Francisco MLS,421528692,N,Y,37.7276156,-122.462125
MLS Listing,,Single Family Residential,2419 27th Ave,SAN FRANCISCO,CA,94116,1300000,2,2.0,SAN FRANCISCO,1276,2160,1931,1,1019,,Active,,,http://www.redfin.com/CA/San-Francisco/2419-27th-Ave-94116/home/661976,MLSListings,ML81834748,N,Y,37.742308,-122.484553
MLS Listing,,Single Family Residential,2519 27th Ave,SAN FRANCISCO,CA,94116,1329000,3,2.0,SAN FRANCISCO,1400,2996,1906,1,949,,Active,,,http://www.redfin.com/CA/San-Francisco/2519-27th-Ave-94116/home/1377175,MLSListings,ML81834738,N,Y,37.7403752,-122.4843365
MLS Listing,,Condo/Co-op,947 Lombard St,San Francisco,CA,94133,1295000,2,1.0,San Francisco,1145,4136,,1,1131,300,Active,,,http://www.redfin.com/CA/San-Francisco/947-Lombard-St-94133/home/1568882,San Francisco MLS,421529696,N,Y,37.801948,-122.417032
MLS Listing,,Condo/Co-op,1630 Waller St,San Francisco,CA,94117,1595000,3,1.5,San Francisco,1315,2495,1904,1,1213,350,Active,,,http://www.redfin.com/CA/San-Francisco/1630-Waller-St-94117/home/148073127,San Francisco MLS,421529190,N,Y,37.7686475,-122.4510906
MLS Listing,,Multi-Family (2-4 Unit),159 - 161 Parnassus Ave,San Francisco,CA,94117,2599000,4,2.0,San Francisco,2850,2374,1922,1,912,,Active,,,http://www.redfin.com/CA/San-Francisco/159-Parnassus-Ave-94117/home/1602727,San Francisco MLS,514434,N,Y,37.7644196,-122.4514837
MLS Listing,,Condo/Co-op,241 Duncan St,San Francisco,CA,94131,1295000,2,1.0,San Francisco,,4332,,1,,350,Active,,,http://www.redfin.com/CA/San-Francisco/241-Duncan-St-94131/home/802646,San Francisco MLS,421528644,N,Y,37.7460799,-122.4257074
MLS Listing,,Single Family Residential,2011 20th Ave,San Francisco,CA,94116,1598000,3,2.0,San Francisco,2250,2408,1936,1,710,,Active,,,http://www.redfin.com/CA/San-Francisco/2011-20th-Ave-94116/home/1541122,San Francisco MLS,421526931,N,Y,37.7501817,-122.4775387
MLS Listing,,Condo/Co-op,65 Cleary Ct #12,San Francisco,CA,94109,1250000,3,2.0,San Francisco,1318,,1962,1,948,1092,Active,,,http://www.redfin.com/CA/San-Francisco/65-Cleary-Ct-94109/unit-12/home/12401224,San Francisco MLS,421529587,N,Y,37.783611,-122.4267148
MLS Listing,,Condo/Co-op,400 Beale St #1202,San Francisco,CA,94105,795000,1,1.0,San Francisco,675,27581,2001,1,1178,853,Active,,,http://www.redfin.com/CA/San-Francisco/400-Beale-St-94105/unit-1202/home/12399769,San Francisco MLS,421528413,N,Y,37.7869049,-122.3909202
MLS Listing,,Condo/Co-op,280 Spear St Unit 1F,San Francisco,CA,94105,1100000,2,1.0,San Francisco,823,47916,,1,1337,1118,Active,,,http://www.redfin.com/CA/San-Francisco/280-Spear-St-94105/unit-1F/home/174716077,San Francisco MLS,421529602,N,Y,37.7903739,-122.3913812
MLS Listing,,Multi-Family (2-4 Unit),2388 Bryant St,San Francisco,CA,94110,1849000,6,3.0,San Francisco,2335,1000,1902,1,792,,Active,,,http://www.redfin.com/CA/San-Francisco/2388-Bryant-St-94110/home/1911814,San Francisco MLS,421529412,N,Y,37.756209,-122.4096864
MLS Listing,,Condo/Co-op,1013 De Haro St,San Francisco,CA,94107,1695000,3,2.0,San Francisco,1625,1568,1997,1,,240,Active,,,http://www.redfin.com/CA/San-Francisco/1013-De-Haro-St-94107/home/848446,MetroList,421529590,N,Y,37.756938,-122.400534
MLS Listing,,Multi-Family (2-4 Unit),1361-1363 Kansas St,SAN FRANCISCO,CA,94107,1600000,8,3.0,SAN FRANCISCO,1842,2500,1909,1,869,,Active,,,http://www.redfin.com/CA/San-Francisco/1361-Kansas-St-94107/home/734598,MLSListings,ML81834657,N,Y,37.7524687,-122.4021033
MLS Listing,,Condo/Co-op,2001 Mcallister St #333,San Francisco,CA,94118,750000,1,1.0,San Francisco,679,98109,2002,1,1105,723,Active,,,http://www.redfin.com/CA/San-Francisco/2001-McAllister-St-94118/unit-333/home/12399450,San Francisco MLS,421529103,N,Y,37.7763812,-122.4456902
MLS Listing,,Multi-Family (2-4 Unit),3850 - 3854 23rd St,San Francisco,CA,94114,3500000,5,2.0,San Francisco,3650,1524,1900,1,959,,Active,,,http://www.redfin.com/CA/San-Francisco/3850-23rd-St-94114/home/174714986,San Francisco MLS,421528974,N,Y,37.7533962,-122.4288565
MLS Listing,,Single Family Residential,329 Chicago Way,SAN FRANCISCO,CA,94112,1200000,2,2.0,SAN FRANCISCO,1241,3431,1924,1,967,,Active,,,http://www.redfin.com/CA/San-Francisco/329-Chicago-Way-94112/home/1527758,MLSListings,ML81834643,N,Y,37.7092843,-122.4329537
MLS Listing,,Single Family Residential,296 Santa Rosa Ave,San Francisco,CA,94112,1098888,4,1.0,San Francisco,1522,2800,1924,1,722,,Active,,,http://www.redfin.com/CA/San-Francisco/296-Santa-Rosa-Ave-94112/home/1986569,San Francisco MLS,421529526,N,Y,37.728979,-122.4397126
MLS Listing,,Condo/Co-op,1310 Fillmore St #707,San Francisco,CA,94115,825000,1,1.0,San Francisco,744,52938,2007,1,1109,758,Active,,,http://www.redfin.com/CA/San-Francisco/1310-Fillmore-St-94115/unit-707/home/17306990,San Francisco MLS,421529500,N,Y,37.7819513,-122.4319769
MLS Listing,,Condo/Co-op,1001 Pine St #1301,San Francisco,CA,94109,699000,1,1.0,San Francisco,650,,1963,1,1075,625,Active,,,http://www.redfin.com/CA/San-Francisco/1001-Pine-St-94109/unit-1301/home/552660,San Francisco MLS,421529095,N,Y,37.7903477,-122.4125675
MLS Listing,,Single Family Residential,43 Carr St,San Francisco,CA,94124,895000,2,1.0,San Francisco,936,4990,1917,1,956,,Active,,,http://www.redfin.com/CA/San-Francisco/43-Carr-St-94124/home/966062,San Francisco MLS,511507,N,Y,37.7218585,-122.3967063
MLS Listing,,Multi-Family (2-4 Unit),4101 23rd St,San Francisco,CA,94114,1595000,4,2.0,San Francisco,1525,1600,1915,1,1046,,Active,,,http://www.redfin.com/CA/San-Francisco/4101-23rd-St-94114/home/924969,San Francisco MLS,421529394,N,Y,37.7527081,-122.4344054
MLS Listing,,Condo/Co-op,1409 Anza St,San Francisco,CA,94118,798000,2,1.0,San Francisco,840,2374,1922,2,950,350,Active,,,http://www.redfin.com/CA/San-Francisco/1409-Anza-St-94118/home/174711000,San Francisco MLS,421527516,N,Y,37.7790331,-122.4635083
MLS Listing,,Single Family Residential,548 Rhode Island St,SAN FRANCISCO,CA,94107,3998000,4,3.5,SAN FRANCISCO,3080,2495,1938,2,1298,,Active,,,http://www.redfin.com/CA/San-Francisco/548-Rhode-Island-St-94107/home/727799,MLSListings,ML81833899,N,Y,37.762827,-122.4026251
MLS Listing,,Condo/Co-op,235 Upper Ter,San Francisco,CA,94117,929000,1,1.0,San Francisco,816,3616,1900,2,1138,323,Active,,,http://www.redfin.com/CA/San-Francisco/235-Upper-Ter-94117/home/1637002,San Francisco MLS,421526912,N,Y,37.7630164,-122.444812
MLS Listing,,Condo/Co-op,720 Clayton St,San Francisco,CA,94117,1450000,3,2.0,San Francisco,1409,2650,1906,2,1029,320,Active,,,http://www.redfin.com/CA/San-Francisco/720-Clayton-St-94117/home/1881076,San Francisco MLS,421526183,N,Y,37.768437,-122.447997
MLS Listing,,Condo/Co-op,1000 North Point St #704,San Francisco,CA,94109,615000,0,1.0,San Francisco,443,26400,1963,2,1388,603,Active,,,http://www.redfin.com/CA/San-Francisco/1000-N-Point-St-94109/unit-704/home/12395413,San Francisco MLS,421529031,N,Y,37.8055099,-122.4241573
MLS Listing,,Single Family Residential,27 Naylor St,San Francisco,CA,94112,1175000,3,1.5,San Francisco,1765,2585,1923,2,666,,Active,,,http://www.redfin.com/CA/San-Francisco/27-Naylor-St-94112/home/794451,San Francisco MLS,421518595,N,Y,37.711138,-122.4337044
MLS Listing,,Condo/Co-op,2250 24th St #334,San Francisco,CA,94107,699000,1,1.0,San Francisco,602,80224,1989,2,1161,539,Active,,,http://www.redfin.com/CA/San-Francisco/2250-24th-St-94107/unit-334/home/1981173,San Francisco MLS,421528967,N,Y,37.7539036,-122.4020126
MLS Listing,,Condo/Co-op,338 Main St Unit 30A,San Francisco,CA,94105,2750000,2,2.0,San Francisco,1572,75406,2016,2,1749,,Active,,,http://www.redfin.com/CA/San-Francisco/338-Main-St-94105/unit-30A/home/109686909,San Francisco MLS,512731,N,Y,37.7886733,-122.3914178
MLS Listing,,Single Family Residential,849 44th Ave,San Francisco,CA,94121,1495000,3,1.0,San Francisco,,3598,1950,2,,,Active,,,http://www.redfin.com/CA/San-Francisco/849-44th-Ave-94121/home/624445,San Francisco MLS,421526831,N,Y,37.7725631,-122.5048522
MLS Listing,,Condo/Co-op,900 Bush St Ph 4,San Francisco,CA,94109,1195000,2,2.0,San Francisco,1216,37816,1982,2,983,1243,Active,,,http://www.redfin.com/CA/San-Francisco/900-Bush-St-94109/unit-4/home/148068255,San Francisco MLS,513959,N,Y,37.7899451,-122.4127266
MLS Listing,,Single Family Residential,224 Mississippi St,San Francisco,CA,94107,2400000,2,2.0,San Francisco,3400,2500,1948,2,706,,Active,,,http://www.redfin.com/CA/San-Francisco/224-Mississippi-St-94107/home/164872715,San Francisco MLS,421529305,N,Y,37.7635702,-122.3950246
MLS Listing,,Condo/Co-op,1333 Jones St #1102,San Francisco,CA,94109,1995000,2,2.0,San Francisco,1590,,1960,2,1255,1718,Active,,,http://www.redfin.com/CA/San-Francisco/1333-Jones-St-94109/unit-1102/home/12399926,San Francisco MLS,421526948,N,Y,37.793621,-122.4148823
MLS Listing,,Condo/Co-op,803 Red Leaf Ct,San Francisco,CA,94134,779000,3,2.0,San Francisco,1200,91485,1987,2,649,441,Active,,,http://www.redfin.com/CA/San-Francisco/803-Red-Leaf-Ct-94134/home/793750,San Francisco MLS,421517197,N,Y,37.7086073,-122.4269047
MLS Listing,,Condo/Co-op,201 Folsom St Unit 41A,SAN FRANCISCO,CA,94105,8000000,3,3.0,SAN FRANCISCO,5700,,2016,2,1404,3750,Active,,,http://www.redfin.com/CA/San-Francisco/201-Folsom-St-94105/unit-41A/home/144064172,MLSListings,ML81834480,N,Y,37.7887059,-122.3922385
MLS Listing,,Condo/Co-op,298 Portola Dr #203,San Francisco,CA,94131,665000,1,1.0,San Francisco,755,21192,1996,2,881,604,Active,,,http://www.redfin.com/CA/San-Francisco/298-Portola-Dr-94131/unit-203/home/1989582,San Francisco MLS,421528926,N,Y,37.7474782,-122.4445179
MLS Listing,,Single Family Residential,1260 Monterey Blvd,San Francisco,CA,94127,3195000,4,3.5,San Francisco,3600,4917,1928,2,888,,Active,,,http://www.redfin.com/CA/San-Francisco/1260-Monterey-Blvd-94127/home/1053666,San Francisco MLS,421528901,N,Y,37.7307127,-122.4627571
MLS Listing,,Condo/Co-op,555 Bartlett St #323,San Francisco,CA,94110,749000,1,1.0,San Francisco,676,30646,2010,2,1108,492,Active,,,http://www.redfin.com/CA/San-Francisco/555-Bartlett-St-94110/unit-323/home/28482171,San Francisco MLS,421525758,N,Y,37.748364,-122.4191095
MLS Listing,,Condo/Co-op,2220 California St,San Francisco,CA,94115,2295000,5,4.0,San Francisco,3350,,1907,2,685,657,Active,,,http://www.redfin.com/CA/San-Francisco/2220-California-St-94115/home/1755241,San Francisco MLS,421529183,N,Y,37.789566,-122.431033
MLS Listing,,Single Family Residential,1714 39th Ave,San Francisco,CA,94122,1095000,3,2.0,San Francisco,1268,2996,1941,2,864,,Active,,,http://www.redfin.com/CA/San-Francisco/1714-39th-Ave-94122/home/1253718,San Francisco MLS,421529172,N,Y,37.7548394,-122.4978127
MLS Listing,,Single Family Residential,119 Banks St,San Francisco,CA,94110,1195000,1,1.0,San Francisco,800,1746,1900,2,1494,,Active,,,http://www.redfin.com/CA/San-Francisco/119-Banks-St-94110/home/765011,San Francisco MLS,421528584,N,Y,37.7409702,-122.4124928
MLS Listing,,Condo/Co-op,3132 Scott,San Francisco,CA,94123,2395000,3,3.5,Marina,2360,4125,1912,2,1015,450,Active,,,http://www.redfin.com/CA/San-Francisco/3132-Scott-St-94123/home/1626810,"bridgeMLS, Bay East AOR, or Contra Costa AOR",40941615,N,Y,37.798881,-122.440599
MLS Listing,,Condo/Co-op,330 Mission Bay Blvd #116,San Francisco,CA,94158,1599000,2,,San Francisco,1569,58215,2008,2,1019,1011,Active,,,http://www.redfin.com/CA/San-Francisco/330-Mission-Bay-Blvd-N-94158/unit-116/home/23424492,San Francisco MLS,421523739,N,Y,37.771662,-122.3874533
MLS Listing,,Condo/Co-op,1339 Greenwich St,San Francisco,CA,94109,1725000,2,1.0,San Francisco,1560,3438,1913,2,1106,,Active,,,http://www.redfin.com/CA/San-Francisco/1339-Greenwich-St-94109/home/174705383,San Francisco MLS,421521792,N,Y,37.8005948,-122.421707
MLS Listing,,Condo/Co-op,1337 Greenwich St,San Francisco,CA,94109,1725000,2,1.0,San Francisco,1705,3438,1913,2,1012,,Active,,,http://www.redfin.com/CA/San-Francisco/1337-Greenwich-St-94109/home/1991720,San Francisco MLS,421521791,N,Y,37.8004698,-122.4216854
MLS Listing,,Condo/Co-op,201 Harrison St #911,San Francisco,CA,94105,745000,1,1.0,San Francisco,572,38449,1991,2,1302,646,Active,,,http://www.redfin.com/CA/San-Francisco/201-Harrison-St-94105/unit-911/home/1638175,San Francisco MLS,421529105,N,Y,37.7875875,-122.3904715
MLS Listing,,Multi-Family (2-4 Unit),927 - 929 Capp St,San Francisco,CA,94110,1395000,1,,San Francisco,1490,2875,1904,2,936,,Active,,,http://www.redfin.com/CA/San-Francisco/927-Capp-St-94110/home/1918283,San Francisco MLS,421525678,N,Y,37.7518066,-122.4169988
MLS Listing,,Single Family Residential,151 Peralta Ave,San Francisco,CA,94110,2498000,4,2.5,San Francisco,2601,1746,1910,2,960,,Active,,,http://www.redfin.com/CA/San-Francisco/151-Peralta-Ave-94110/home/1353249,San Francisco MLS,421529061,N,Y,37.746974,-122.407855
MLS Listing,,Condo/Co-op,1870 Jackson St #201,San Francisco,CA,94109,1499000,1,2.0,San Francisco,1270,10104,1931,2,1180,856,Active,,,http://www.redfin.com/CA/San-Francisco/1870-Jackson-St-94109/unit-201/home/566338,San Francisco MLS,421525120,N,Y,37.7938595,-122.4258544
MLS Listing,,Condo/Co-op,175 Russ St #1,San Francisco,CA,94103,738000,1,1.5,San Francisco,,6964,2003,2,,556,Active,,,http://www.redfin.com/CA/San-Francisco/175-Russ-St-94103/unit-1/home/12400585,San Francisco MLS,421523674,N,Y,37.7781581,-122.4069909
MLS Listing,,Single Family Residential,731 Noe St,SAN FRANCISCO,CA,94114,2375000,3,2.0,SAN FRANCISCO,1465,2993,1909,2,1621,,Active,,,http://www.redfin.com/CA/San-Francisco/731-Noe-St-94114/home/1165996,MLSListings,ML81834436,N,Y,37.7573415,-122.4321517
MLS Listing,,Condo/Co-op,403 Main St Unit 514N,San Francisco,CA,94105,659000,1,1.0,San Francisco,536,29037,1997,3,1229,538,Active,,,http://www.redfin.com/CA/San-Francisco/403-Main-St-94105/unit-514N/home/1653974,San Francisco MLS,421529099,N,Y,37.7880767,-122.3896032
MLS Listing,,Single Family Residential,1253 Alemany Blvd,San Francisco,CA,94112,995000,5,3.0,San Francisco,2492,2247,1929,3,399,,Active,,,http://www.redfin.com/CA/San-Francisco/1253-Alemany-Blvd-94112/home/811664,San Francisco MLS,421528786,N,Y,37.730043,-122.432045
MLS Listing,,Multi-Family (2-4 Unit),1586 - 1588 Funston Ave,San Francisco,CA,94122,1495000,2,4.0,San Francisco,2600,1746,1946,3,575,,Active,,,http://www.redfin.com/CA/San-Francisco/1586-Funston-Ave-94122/home/634976,San Francisco MLS,421528998,N,Y,37.7585503,-122.4699821
MLS Listing,,Single Family Residential,51 Lopez Ave,San Francisco,CA,94116,3385000,6,3.5,San Francisco,3885,3687,1916,3,871,,Active,,,http://www.redfin.com/CA/San-Francisco/51-Lopez-Ave-94116/home/1773515,San Francisco MLS,421528555,N,Y,37.7475131,-122.4633321
MLS Listing,,Condo/Co-op,226 27th St #10,San Francisco,CA,94131,649999,1,1.0,Noe Valley,1,,1963,3,649999,276,Active,,,http://www.redfin.com/CA/San-Francisco/226-27th-St-94131/unit-10/home/52059010,"bridgeMLS, Bay East AOR, or Contra Costa AOR",40941596,N,Y,37.747179,-122.4258216
MLS Listing,,Condo/Co-op,3620 Cesar Chavez St #302,San Francisco,CA,94110,1199000,2,2.0,San Francisco,1144,,2020,3,1048,568,Active,,,http://www.redfin.com/CA/San-Francisco/3620-Cesar-Chavez-94110/unit-302/home/174702090,San Francisco MLS,421529042,N,Y,37.7483761,-122.4219282
MLS Listing,,Condo/Co-op,96 Cumberland St,San Francisco,CA,94110,1595000,2,2.0,San Francisco,1305,2247,1908,3,1222,495,Active,,,http://www.redfin.com/CA/San-Francisco/96-Cumberland-St-94110/home/40138824,San Francisco MLS,421520216,N,Y,37.759253,-122.425613
MLS Listing,,Condo/Co-op,3620 Cesar Chavez St #604,San Francisco,CA,94110,1365000,2,2.0,San Francisco,1038,,2020,3,1315,600,Active,,,http://www.redfin.com/CA/San-Francisco/3620-Cesar-Chavez-94110/unit-604/home/174701800,San Francisco MLS,421529039,N,Y,37.7483761,-122.4219282
MLS Listing,,Condo/Co-op,488 Folsom St #4805,San Francisco,CA,94105,3655000,2,2.5,San Francisco,1811,,2019,3,2018,1814,Active,,,http://www.redfin.com/CA/San-Francisco/488-Folsom-St-94105/unit-4805/home/169571721,San Francisco MLS,421528963,N,Y,37.7875077,-122.3944713
MLS Listing,,Condo/Co-op,1875 Mission St #106,San Francisco,CA,94103,695000,1,1.0,San Francisco,618,11181,2014,3,1125,594,Active,,,http://www.redfin.com/CA/San-Francisco/1875-Mission-St-94103/unit-106/home/109278483,San Francisco MLS,421527123,N,Y,37.7671013,-122.4194461
MLS Listing,,Condo/Co-op,501 Beale St Unit 10G,San Francisco,CA,94105,1150000,2,2.0,San Francisco,1037,,2005,3,1109,1100,Active,,,http://www.redfin.com/CA/San-Francisco/501-Beale-St-94105/unit-10G/home/22887589,San Francisco MLS,421529012,N,Y,37.7862533,-122.3891164
MLS Listing,,Single Family Residential,1826 11th Ave,San Francisco,CA,94122,1699000,4,3.0,San Francisco,2200,3000,1977,3,772,,Active,,,http://www.redfin.com/CA/San-Francisco/1826-11th-Ave-94122/home/1889224,San Francisco MLS,421528364,N,Y,37.7540795,-122.4675445
MLS Listing,,Condo/Co-op,488 Folsom #4702,San Francisco,CA,94105,4625000,3,3.0,San Francisco,2064,,2019,3,2241,1882,Active,,,http://www.redfin.com/CA/San-Francisco/488-Folsom-St-94105/unit-4702/home/169571715,San Francisco MLS,511799,N,Y,37.7875077,-122.3944713
MLS Listing,,Condo/Co-op,488 Folsom #4005,San Francisco,CA,94105,2885000,2,2.5,San Francisco,1652,,2019,3,1746,1771,Active,,,http://www.redfin.com/CA/San-Francisco/488-Folsom-St-94105/unit-4005/home/169571681,San Francisco MLS,421528952,N,Y,37.7875077,-122.3944713
MLS Listing,,Single Family Residential,2582 46th Ave,San Francisco,CA,94116,1195000,3,2.0,San Francisco,1300,2374,1942,3,919,,Active,,,http://www.redfin.com/CA/San-Francisco/2582-46th-Ave-94116/home/1604111,San Francisco MLS,421518603,N,Y,37.7383965,-122.5041975
MLS Listing,,Single Family Residential,667 Campbell Ave,San Francisco,CA,94134,885000,3,1.5,San Francisco,1248,2495,1952,3,709,,Active,,,http://www.redfin.com/CA/San-Francisco/667-Campbell-Ave-94134/home/785863,San Francisco MLS,421528726,N,Y,37.7160333,-122.409849
MLS Listing,,Condo/Co-op,200 Brannan St #435,San Francisco,CA,94107,2195000,2,2.0,San Francisco,1754,72899,2004,3,1251,875,Active,,,http://www.redfin.com/CA/San-Francisco/200-Brannan-St-94107/unit-435/home/1689724,San Francisco MLS,421528938,N,Y,37.7836002,-122.3907074
MLS Listing,,Condo/Co-op,1753 Beach St,San Francisco,CA,94123,2300000,2,2.0,San Francisco,1585,2461,1927,3,1451,250,Active,,,http://www.redfin.com/CA/San-Francisco/1753-Beach-St-94123/home/1348478,San Francisco MLS,421527740,N,Y,37.803996,-122.438066
MLS Listing,,Single Family Residential,74 Vista Verde Ct,San Francisco,CA,94131,1685000,4,2.5,San Francisco,2306,5436,1968,3,731,33,Active,,,http://www.redfin.com/CA/San-Francisco/74-Vista-Verde-Ct-94131/home/1922052,San Francisco MLS,421528577,N,Y,37.735677,-122.4454189
MLS Listing,,Condo/Co-op,220 Lombard St #419,San Francisco,CA,94111,598000,1,1.0,San Francisco,709,,1992,3,843,880,Active,,,http://www.redfin.com/CA/San-Francisco/220-Lombard-St-94111/unit-419/home/1442036,San Francisco MLS,421528900,N,Y,37.8042439,-122.4055041
MLS Listing,,Multi-Family (5+ Unit),2501 Van Ness Ave,San Francisco,CA,94109,4350000,0,,San Francisco,9741,3693,1906,3,447,,Active,,,http://www.redfin.com/CA/San-Francisco/2501-Van-Ness-Ave-94109/home/174700380,San Francisco MLS,421528578,N,Y,37.7986633,-122.4242964
MLS Listing,,Single Family Residential,1463 Palou Ave,SAN FRANCISCO,CA,94124,899000,2,1.5,SAN FRANCISCO,1250,3000,1910,3,719,,Active,,,http://www.redfin.com/CA/San-Francisco/1463-Palou-Ave-94124/home/1255994,MLSListings,ML81834336,N,Y,37.7324107,-122.3884991
MLS Listing,,Single Family Residential,2828 Vallejo St,San Francisco,CA,94123,28000000,8,8.5,San Francisco,10345,11343,1906,3,2707,,Active,,,http://www.redfin.com/CA/San-Francisco/2828-Vallejo-St-94123/home/1507511,San Francisco MLS,421523154,N,Y,37.7944152,-122.4440256
MLS Listing,,Condo/Co-op,144 - 1/2 Downey St,San Francisco,CA,94117,785000,2,1.0,San Francisco,715,2183,,3,1098,200,Active,,,http://www.redfin.com/CA/San-Francisco/144-1-2-Downey-St-94117/home/173186932,San Francisco MLS,421528884,N,Y,37.7662857,-122.4468122
MLS Listing,,Multi-Family (2-4 Unit),1213 - 1215 Sanchez St,San Francisco,CA,94114,2175000,3,2.5,San Francisco,2108,1794,1900,3,1032,,Active,,,http://www.redfin.com/CA/San-Francisco/1213-Sanchez-St-94114/home/1623559,San Francisco MLS,421523733,N,Y,37.7496816,-122.4291881
MLS Listing,,Multi-Family (5+ Unit),646 - 654 Washington St,San Francisco,CA,94111,4800000,0,,San Francisco,18128,4560,1909,3,265,,Active,,,http://www.redfin.com/CA/San-Francisco/646-Washington-St-94111/home/174699889,San Francisco MLS,421527901,N,Y,37.795618,-122.40437
MLS Listing,,Multi-Family (2-4 Unit),132 - 134 Blake St,San Francisco,CA,94118,1350000,5,2.0,San Francisco,2244,3000,1900,3,602,,Active,,,http://www.redfin.com/CA/San-Francisco/132-Blake-St-94118/home/591041,San Francisco MLS,421526627,N,Y,37.7814813,-122.4507025
MLS Listing,,Multi-Family (5+ Unit),318 25th Ave,San Francisco,CA,94121,2390000,5,2.0,San Francisco,3832,3000,1962,3,624,,Active,,,http://www.redfin.com/CA/San-Francisco/318-25th-Ave-94121/home/607275,San Francisco MLS,421528554,N,Y,37.7834784,-122.4847795
MLS Listing,,Single Family Residential,1446 Moraga St,San Francisco,CA,94122,1799000,3,3.0,San Francisco,1794,2500,1930,3,1003,,Active,,,http://www.redfin.com/CA/San-Francisco/1446-Moraga-St-94122/home/1012844,San Francisco MLS,421526941,N,Y,37.7562093,-122.4785119
MLS Listing,,Multi-Family (5+ Unit),88 Elgin Park,San Francisco,CA,94103,2495000,2,2.0,San Francisco,4290,1646,1915,3,582,,Active,,,http://www.redfin.com/CA/San-Francisco/88-Elgin-Park-94103/home/1997079,San Francisco MLS,421528829,N,Y,37.7701204,-122.423422
MLS Listing,,Condo/Co-op,45 Dolores Ter,San Francisco,CA,94110,1275000,2,2.0,San Francisco,,1601,1939,3,,,Active,,,http://www.redfin.com/CA/San-Francisco/45-Dolores-Ter-94110/home/23424263,San Francisco MLS,421523770,N,Y,37.7625979,-122.4254633
MLS Listing,,Condo/Co-op,47 Dolores Ter,San Francisco,CA,94110,1275000,1,1.0,San Francisco,,1601,1939,3,,,Active,,,http://www.redfin.com/CA/San-Francisco/47-Dolores-Ter-94110/home/21966715,San Francisco MLS,421523772,N,Y,37.7625985,-122.4254651
MLS Listing,,Single Family Residential,613 Paris St,San Francisco,CA,94112,1049000,3,2.0,San Francisco,1465,2500,1910,3,716,,Active,,,http://www.redfin.com/CA/San-Francisco/613-Paris-St-94112/home/898090,San Francisco MLS,421528646,N,Y,37.7188515,-122.4368262
MLS Listing,,Single Family Residential,2956 19th Ave,San Francisco,CA,94132,1668000,4,3.0,San Francisco,2512,4305,1936,3,664,,Active,,,http://www.redfin.com/CA/San-Francisco/2956-19th-Ave-94132/home/1151221,San Francisco MLS,421528788,N,Y,37.7333515,-122.4747418
MLS Listing,,Single Family Residential,1392 Alemany Blvd,San Francisco,CA,94112,1199000,5,3.0,San Francisco,1974,2254,1953,3,607,,Active,,,http://www.redfin.com/CA/San-Francisco/1392-Alemany-Blvd-94112/home/820181,San Francisco MLS,421517199,N,Y,37.7296003,-122.434028
MLS Listing,,Condo/Co-op,21 Stillman St #3,San Francisco,CA,94107,1247500,1,2.0,San Francisco,1713,,1998,3,728,888,Active,,,http://www.redfin.com/CA/San-Francisco/21-Stillman-St-94107/unit-3/home/12395962,San Francisco MLS,421526142,N,Y,37.7829779,-122.3945173
MLS Listing,,Condo/Co-op,260 King St #525,San Francisco,CA,94107,999000,2,2.0,San Francisco,979,,2004,3,1020,850,Active,,,http://www.redfin.com/CA/San-Francisco/260-King-St-94107/unit-525/home/8191069,San Francisco MLS,421528581,N,Y,37.7776422,-122.3934181
MLS Listing,,Condo/Co-op,338 Potrero Ave #505,San Francisco,CA,94103,799000,1,1.0,San Francisco,649,11250,2017,4,1231,633,Active,,,http://www.redfin.com/CA/San-Francisco/338-Potrero-Ave-94103/unit-505/home/144063903,San Francisco MLS,421522593,N,Y,37.7651395,-122.4078164
MLS Listing,,Single Family Residential,158 Flood Ave,San Francisco,CA,94131,1400000,2,1.75,San Francisco,1240,2809,1925,4,1129,,Active,,,http://www.redfin.com/CA/San-Francisco/158-Flood-Ave-94131/home/693054,CRMLS,EV21053835,N,Y,37.7301213,-122.4433842
MLS Listing,,Vacant Land,1056 - 1060 Potrero Ave,San Francisco,CA,94110,2300000,0,,San Francisco,,2500,,4,,,Active,,,http://www.redfin.com/CA/San-Francisco/1056-Potrero-Ave-94110/home/174696192,San Francisco MLS,421528693,N,Y,37.7551993,-122.4068903
MLS Listing,,Condo/Co-op,2224 Clement #108,San Francisco,CA,94121,1388000,3,2.0,San Francisco,1457,,2020,4,953,712,Active,,,http://www.redfin.com/CA/San-Francisco/2224-Clement-St-94121/unit-108/home/173073700,San Francisco MLS,421527943,N,Y,37.7823411,-122.4834247
MLS Listing,,Single Family Residential,1148 Jamestown Ave,SAN FRANCISCO,CA,94124,998000,4,2.0,SAN FRANCISCO,1810,2500,1973,4,551,,Active,,,http://www.redfin.com/CA/San-Francisco/1148-Jamestown-Ave-94124/home/1396719,MLSListings,ML81834211,N,Y,37.7200175,-122.3958765
MLS Listing,,Multi-Family (2-4 Unit),1941 - 1943 Eddy St,San Francisco,CA,94115,1695000,4,2.0,San Francisco,2186,3436,1962,4,775,,Active,,,http://www.redfin.com/CA/San-Francisco/1941-Eddy-St-94115/home/1683879,San Francisco MLS,421528579,N,Y,37.7803118,-122.4397702
MLS Listing,,Multi-Family (5+ Unit),500 9th Ave,San Francisco,CA,94118,3295000,0,,San Francisco,5106,2000,1922,4,645,,Active,,,http://www.redfin.com/CA/San-Francisco/500-9th-Ave-94118/home/2030996,San Francisco MLS,421526471,N,Y,37.7787446,-122.4671814
MLS Listing,,Single Family Residential,448 Arlington St,San Francisco,CA,94131,1795000,3,1.5,San Francisco,1461,2350,1911,4,1229,,Active,,,http://www.redfin.com/CA/San-Francisco/448-Arlington-St-94131/home/1551542,BAREIS,421528446,N,Y,37.7356004,-122.4291728
MLS Listing,,Multi-Family (5+ Unit),375 14th St,San Francisco,CA,94103,3500000,0,,San Francisco,9284,7200,1925,4,377,,Active,,,http://www.redfin.com/CA/San-Francisco/375-14th-St-94103/home/1710825,San Francisco MLS,421528610,N,Y,37.7679557,-122.4216406
MLS Listing,,Condo/Co-op,351 Buena Vista Ave Unit 702E,San Francisco,CA,94117,1195000,1,1.0,San Francisco,,13515,1987,4,,821,Active,,,http://www.redfin.com/CA/San-Francisco/351-Buena-Vista-Ave-E-94117/unit-702E/home/102813088,San Francisco MLS,421528582,N,Y,37.7675387,-122.4401564
MLS Listing,,Single Family Residential,496 Monterey Blvd,San Francisco,CA,94127,1195000,2,2.0,San Francisco,1240,3000,1922,4,964,,Active,,,http://www.redfin.com/CA/San-Francisco/496-Monterey-Blvd-94127/home/691881,San Francisco MLS,421526596,N,Y,37.7317482,-122.446569
MLS Listing,,Condo/Co-op,20 Inca Ln #3,San Francisco,CA,94115,710000,3,2.0,San Francisco,1050,666,,4,676,959,Active,,,http://www.redfin.com/CA/San-Francisco/20-Inca-Ln-94115/unit-3/home/12401367,San Francisco MLS,421528544,N,Y,37.7834077,-122.4284407
MLS Listing,,Condo/Co-op,1734 Bay St #201,San Francisco,CA,94123,1150000,2,2.0,San Francisco,,7545,1963,4,,908,Active,,,http://www.redfin.com/CA/San-Francisco/1734-Bay-St-94123/unit-201/home/1506850,San Francisco MLS,421528030,N,Y,37.8030989,-122.4355904
MLS Listing,,Single Family Residential,37 Ralston St,San Francisco,CA,94132,997000,2,1.0,San Francisco,1084,2687,1962,4,,,Active,,,http://www.redfin.com/CA/San-Francisco/37-Ralston-St-94132/home/1945580,MetroList,421522918,N,Y,37.7131569,-122.468816
MLS Listing,,Multi-Family (5+ Unit),1016 - 1018 Shotwell St,San Francisco,CA,94110,4595000,12,4.0,San Francisco,8208,5513,1900,4,560,,Active,,,http://www.redfin.com/CA/San-Francisco/1016-Shotwell-St-94110/home/797889,San Francisco MLS,421528040,N,Y,37.7517887,-122.4154232
MLS Listing,,Single Family Residential,1095 Pacheco St,San Francisco,CA,94116,1900000,3,2.5,San Francisco,1740,1598,1959,4,1092,,Active,,,http://www.redfin.com/CA/San-Francisco/1095-Pacheco-St-94116/home/1878216,San Francisco MLS,421528213,N,Y,37.7510078,-122.4716876
MLS Listing,,Single Family Residential,,San Francisco,CA,94132,1339000,3,3.0,San Francisco,1828,2495,1964,5,732,,Active,,,http://www.redfin.com/CA/San-Francisco/Undisclosed-address-94132/home/825907,San Francisco MLS,421528486,N,Y,37.7185379,-122.4629009
MLS Listing,,Single Family Residential,4020 Noriega St,San Francisco,CA,94122,1028000,3,2.0,San Francisco,1378,2325,1954,5,746,,Active,,,http://www.redfin.com/CA/San-Francisco/4020-Noriega-St-94122/home/1894717,San Francisco MLS,421528436,N,Y,37.7530892,-122.506992
MLS Listing,,Single Family Residential,326 Naples St,San Francisco,CA,94112,899000,4,2.0,San Francisco,1479,2500,1900,5,608,,Active,,,http://www.redfin.com/CA/San-Francisco/326-Naples-St-94112/home/1149990,San Francisco MLS,421528418,N,Y,37.7236292,-122.4294645
MLS Listing,,Condo/Co-op,386 Richland Ave Unit C,San Francisco,CA,94110,749000,1,1.0,San Francisco,789,2675,1900,5,949,230,Active,,,http://www.redfin.com/CA/San-Francisco/386-Richland-Ave-94110/unit-C/home/11743713,San Francisco MLS,421526431,N,Y,37.7354664,-122.4172825
MLS Listing,,Condo/Co-op,371 - 375 Haight St #373,San Francisco,CA,94102,1595000,3,2.0,San Francisco,,2021,1900,5,,,Active,,,http://www.redfin.com/CA/San-Francisco/371-Haight-St-94102/unit-373/home/174689734,San Francisco MLS,421523719,N,Y,37.772177,-122.428259
MLS Listing,,Condo/Co-op,401 Harrison St Unit 18B,San Francisco,CA,94105,1799000,2,2.0,San Francisco,1311,,2014,5,1372,1369,Active,,,http://www.redfin.com/CA/San-Francisco/401-Harrison-St-94105/unit-18B/home/110291276,San Francisco MLS,421528410,N,Y,37.7864989,-122.3921487
MLS Listing,,Multi-Family (2-4 Unit),1630 Hyde St,San Francisco,CA,94109-2638,5200000,,,Nob Hill,4830,2809,1904,5,1077,,Active,,,http://www.redfin.com/CA/San-Francisco/1630-Hyde-St-94109/home/1161314,"bridgeMLS, Bay East AOR, or Contra Costa AOR",40939050,N,Y,37.7959761,-122.4180783
MLS Listing,,Single Family Residential,3918 San Bruno Ave,San Francisco,CA,94134,1790000,5,4.0,San Francisco,2806,1796,2010,5,638,,Active,,,http://www.redfin.com/CA/San-Francisco/3918-San-Bruno-Ave-94134/home/28935749,San Francisco MLS,421528393,N,Y,37.7147094,-122.4016958
MLS Listing,,Single Family Residential,81 Oneida Ave,San Francisco,CA,94112,1493000,3,2.0,San Francisco,1703,2495,1939,6,877,,Active,,,http://www.redfin.com/CA/San-Francisco/81-Oneida-Ave-94112/home/817931,San Francisco MLS,421526231,N,Y,37.7206265,-122.4401346
MLS Listing,,Condo/Co-op,250 King St #634,San Francisco,CA,94107,755000,1,1.0,San Francisco,760,213232,2004,6,993,799,Active,,,http://www.redfin.com/CA/San-Francisco/250-King-St-94107/unit-634/home/22889339,San Francisco MLS,421525349,N,Y,37.7776422,-122.3934181
MLS Listing,,Condo/Co-op,1800 Bryant St #104,San Francisco,CA,94110,875000,1,2.0,San Francisco,1045,14972,2000,6,837,550,Active,,,http://www.redfin.com/CA/San-Francisco/1800-Bryant-St-94110/unit-104/home/1125782,San Francisco MLS,421519860,N,Y,37.7640877,-122.4108277
MLS Listing,,Single Family Residential,461 Allison St,San Francisco,CA,94112,829000,2,1.0,San Francisco,925,3219,1962,6,896,,Active,,,http://www.redfin.com/CA/San-Francisco/461-Allison-St-94112/home/1869241,San Francisco MLS,421528175,N,Y,37.7094091,-122.4403043
MLS Listing,,Single Family Residential,200 Naples St,SAN FRANCISCO,CA,94112,1250000,3,2.5,SAN FRANCISCO,2044,2495,1907,6,612,,Active,,,http://www.redfin.com/CA/San-Francisco/200-Naples-St-94112/home/1993920,MLSListings,ML81834024,N,Y,37.7254612,-122.4279484
MLS Listing,,Single Family Residential,1045 Girard St,San Francisco,CA,94134,1049500,3,2.0,San Francisco,1493,2042,1946,6,703,,Active,,,http://www.redfin.com/CA/San-Francisco/1045-Girard-St-94134/home/1802062,San Francisco MLS,511857,N,Y,37.7196526,-122.4012201
MLS Listing,,Condo/Co-op,300 3rd St #522,San Francisco,CA,94107,699000,1,1.0,San Francisco,871,,1990,6,803,724,Active,,,http://www.redfin.com/CA/San-Francisco/300-3rd-St-94107/unit-522/home/1405698,San Francisco MLS,421522515,N,Y,37.7831802,-122.3990823
MLS Listing,,Condo/Co-op,250 King St #532,San Francisco,CA,94107,765000,1,,San Francisco,716,213232,2004,6,1068,800,Active,,,http://www.redfin.com/CA/San-Francisco/250-King-St-94107/unit-532/home/22889149,San Francisco MLS,421528335,N,Y,37.7776422,-122.3934181
MLS Listing,,Multi-Family (2-4 Unit),518 - 520 Presidio Ave,San Francisco,CA,94115,2088000,4,1.0,San Francisco,2740,2495,1923,6,762,,Active,,,http://www.redfin.com/CA/San-Francisco/518-Presidio-Ave-94115/home/1492161,San Francisco MLS,421527833,N,Y,37.7868747,-122.4464154
MLS Listing,,Condo/Co-op,885 Rhode Island St,San Francisco,CA,94107,1595000,3,2.0,San Francisco,1930,2500,1988,6,826,,Active,,,http://www.redfin.com/CA/San-Francisco/885-Rhode-Island-St-94107/home/148077442,San Francisco MLS,421528041,N,Y,37.7585793,-122.4018059
MLS Listing,,Condo/Co-op,887 Rhode Island St,San Francisco,CA,94107,1495000,2,2.5,San Francisco,1850,2500,1988,6,808,,Active,,,http://www.redfin.com/CA/San-Francisco/887-Rhode-Island-St-94107/home/731719,San Francisco MLS,421528110,N,Y,37.758567,-122.401663
MLS Listing,,Single Family Residential,808 South Van Ness Ave,San Francisco,CA,94110,1895000,3,2.5,San Francisco,2180,1587,1900,6,869,,Active,,,http://www.redfin.com/CA/San-Francisco/808-S-Van-Ness-Ave-94110/home/1479112,San Francisco MLS,421527929,N,Y,37.760106,-122.41727
MLS Listing,,Condo/Co-op,22 Parsons St,San Francisco,CA,94118,1195000,2,2.0,San Francisco,1245,2375,1908,6,960,300,Active,,,http://www.redfin.com/CA/San-Francisco/22-Parsons-St-94118/unit-22/home/69371345,San Francisco MLS,421526770,N,Y,37.7752644,-122.4551429
MLS Listing,,Condo/Co-op,300 Ivy St #513,San Francisco,CA,94102,949000,1,1.0,San Francisco,,,2014,6,,550,Active,,,http://www.redfin.com/CA/San-Francisco/300-Ivy-St-94102/unit-513/home/69054955,San Francisco MLS,421527594,N,Y,37.7774924,-122.4235603
MLS Listing,,Condo/Co-op,1170 Sacramento St Unit 8A,San Francisco,CA,94109,3650000,2,2.5,San Francisco,,2243,1963,6,,2832,Active,,,http://www.redfin.com/CA/San-Francisco/1170-Sacramento-St-94108/unit-8A/home/1514088,San Francisco MLS,421526938,N,Y,37.7929056,-122.4121403
MLS Listing,,Single Family Residential,848 Peralta Ave,San Francisco,CA,94110,1595000,3,3.0,San Francisco,1310,1751,2007,6,1218,,Active,,,http://www.redfin.com/CA/San-Francisco/848-Peralta-Ave-94110/home/12226771,San Francisco MLS,421526363,N,Y,37.7389877,-122.4090968
MLS Listing,,Single Family Residential,1387 41st Ave,San Francisco,CA,94122,1199000,5,4.0,San Francisco,2250,2060,1941,7,533,,Active,,,http://www.redfin.com/CA/San-Francisco/1387-41st-Ave-94122/home/1660564,San Francisco MLS,421528221,N,Y,37.760938,-122.5008548
MLS Listing,,Single Family Residential,67 Richland Ave,San Francisco,CA,94110,1395000,3,1.5,San Francisco,1635,2500,1890,7,853,,Active,,,http://www.redfin.com/CA/San-Francisco/67-Richland-Ave-94110/home/1918389,San Francisco MLS,421527647,N,Y,37.7361999,-122.425048
MLS Listing,,Condo/Co-op,219 Cumberland St #4,San Francisco,CA,94114,750000,1,1.0,San Francisco,690,2889,1964,7,1087,401,Active,,,http://www.redfin.com/CA/San-Francisco/219-Cumberland-St-94114/unit-4/home/22042897,San Francisco MLS,421528132,N,Y,37.7586105,-122.4286521
MLS Listing,,Condo/Co-op,435 China Basin St #213,San Francisco,CA,94158,998000,1,1.0,San Francisco,843,122891,2012,7,1184,815,Active,,,http://www.redfin.com/CA/San-Francisco/435-China-Basin-St-94158/unit-213/home/40629242,San Francisco MLS,421528207,N,Y,37.7715936,-122.3885893
MLS Listing,,Condo/Co-op,460 5th Ave,San Francisco,CA,94118,1699000,3,2.0,San Francisco,1729,3033,2004,7,983,235,Active,,,http://www.redfin.com/CA/San-Francisco/460-5th-Ave-94118/home/1365179,San Francisco MLS,421527940,N,Y,37.779917,-122.462802
MLS Listing,,Condo/Co-op,1 Hawthorne St Unit 23A,San Francisco,CA,94105,1950000,2,2.0,San Francisco,1558,12409,,7,1252,1363,Active,,,http://www.redfin.com/CA/San-Francisco/1-Hawthorne-St-94105/unit-23A/home/50262882,San Francisco MLS,421528174,N,Y,37.7857356,-122.3989521
MLS Listing,,Single Family Residential,722 Girard St,SAN FRANCISCO,CA,94134,1299000,5,3.0,SAN FRANCISCO,2480,3998,1907,7,524,,Active,,,http://www.redfin.com/CA/San-Francisco/722-Girard-St-94134/home/1696152,MLSListings,ML81833897,N,Y,37.7233254,-122.4032115
MLS Listing,,Condo/Co-op,720 York St #102,San Francisco,CA,94110,1295000,1,1.0,San Francisco,1454,,1999,7,891,598,Active,,,http://www.redfin.com/CA/San-Francisco/720-York-St-94110/unit-102/home/12396548,San Francisco MLS,421528038,N,Y,37.7598258,-122.4092029
MLS Listing,,Condo/Co-op,18 Lansing St #403,San Francisco,CA,94105,1859000,2,2.0,San Francisco,1688,10062,1928,7,1101,659,Active,,,http://www.redfin.com/CA/San-Francisco/18-Lansing-St-94105/unit-403/home/12395949,San Francisco MLS,421526773,N,Y,37.7863844,-122.393839
MLS Listing,,Condo/Co-op,403 Main St Unit 816N,San Francisco,CA,94105,950000,1,1.0,San Francisco,862,29037,1997,7,1102,689,Active,,,http://www.redfin.com/CA/San-Francisco/403-Main-St-94105/unit-816N/home/1801130,San Francisco MLS,421527936,N,Y,37.7880767,-122.3896032
MLS Listing,,Multi-Family (2-4 Unit),8137 - 8139 Geary Blvd,San Francisco,CA,94121,1595000,4,,San Francisco,2600,1873,1948,7,613,,Active,,,http://www.redfin.com/CA/San-Francisco/8137-Geary-Blvd-94121/home/1988938,San Francisco MLS,421523732,N,Y,37.7788066,-122.5068077
MLS Listing,,Condo/Co-op,8 Montezuma St,San Francisco,CA,94110,995000,2,1.0,San Francisco,865,1750,1931,7,1150,,Active,,,http://www.redfin.com/CA/San-Francisco/8-Montezuma-St-94110/home/2001196,San Francisco MLS,421527810,N,Y,37.7458372,-122.416895
MLS Listing,,Single Family Residential,56 Cielito Dr,San Francisco,CA,94134,699000,3,1.0,San Francisco,990,1999,1944,7,706,,Active,,,http://www.redfin.com/CA/San-Francisco/56-Cielito-Dr-94134/home/1885854,San Francisco MLS,421527994,N,Y,37.7097209,-122.4221162
MLS Listing,,Single Family Residential,629 Lakeview Ave,San Francisco,CA,94112,969000,3,2.0,San Francisco,1415,2495,1954,7,685,,Active,,,http://www.redfin.com/CA/San-Francisco/629-Lakeview-Ave-94112/home/1850601,San Francisco MLS,421527644,N,Y,37.7181045,-122.4571402
MLS Listing,,Condo/Co-op,10 Kennedy Pl #304,San Francisco,CA,94124,839000,2,2.0,San Francisco,969,,2018,7,866,611,Active,,,http://www.redfin.com/CA/San-Francisco/10-Kennedy-Pl-94124/unit-304/home/173337445,"bridgeMLS, Bay East AOR, or Contra Costa AOR",40941155,N,Y,37.7281091,-122.367719
MLS Listing,,Condo/Co-op,588 Minna St #301,San Francisco,CA,94109,1099000,2,2.0,San Francisco,998,8084,,7,1101,680,Active,,,http://www.redfin.com/CA/San-Francisco/588-Minna-94103/unit-301/home/174684627,San Francisco MLS,421527897,N,Y,37.7790369,-122.4101047
MLS Listing,,Condo/Co-op,280 Spear St Unit 31C,San Francisco,CA,94105,2200000,2,2.0,San Francisco,1297,47916,,7,1696,1284,Active,,,http://www.redfin.com/CA/San-Francisco/280-Spear-St-94105/unit-31C/home/171848540,San Francisco MLS,421527933,N,Y,37.7903739,-122.3913812
MLS Listing,,Condo/Co-op,1812 Pacific Ave,San Francisco,CA,94109,2525000,3,2.5,San Francisco,1829,7686,2009,7,1381,360,Active,,,http://www.redfin.com/CA/San-Francisco/1812-Pacific-Ave-94109/home/21506813,San Francisco MLS,421524358,N,Y,37.7948128,-122.4256762
MLS Listing,,Condo/Co-op,10 Kennedy Pl #108,San Francisco,CA,94124,699000,1,1.0,San Francisco,655,,2018,7,1067,544,Active,,,http://www.redfin.com/CA/San-Francisco/10-Kennedy-Pl-94124/unit-108/home/173337420,"bridgeMLS, Bay East AOR, or Contra Costa AOR",40941123,N,Y,37.7281091,-122.367719
MLS Listing,,Condo/Co-op,1859 Vallejo St #2,San Francisco,CA,94123,1899000,3,2.0,San Francisco,1928,5451,1909,7,985,621,Active,,,http://www.redfin.com/CA/San-Francisco/1859-Vallejo-St-94123/unit-2/home/563457,San Francisco MLS,421527369,N,Y,37.795886,-122.4278208
MLS Listing,,Condo/Co-op,123 Corwin St Unit B,San Francisco,CA,94114,975000,2,1.0,San Francisco,817,2541,1962,7,1193,196,Active,,,http://www.redfin.com/CA/San-Francisco/123-Corwin-St-94114/unit-B/home/100768863,San Francisco MLS,421527898,N,Y,37.7573582,-122.4407155
MLS Listing,,Multi-Family (2-4 Unit),148 - 152 Fillmore St,San Francisco,CA,94117,2995000,7,3.0,San Francisco,3801,1950,1900,7,788,,Active,,,http://www.redfin.com/CA/San-Francisco/148-Fillmore-St-94117/home/1523427,San Francisco MLS,421527895,N,Y,37.7710169,-122.4299664
MLS Listing,,Condo/Co-op,151 Alice B. Toklas Pl #801,San Francisco,CA,94109,949500,1,1.0,San Francisco,954,25240,1920,7,995,899,Active,,,http://www.redfin.com/CA/San-Francisco/151-Alice-B-Toklas-94109/unit-801/home/999541,San Francisco MLS,421527786,N,Y,37.7850879,-122.420674
MLS Listing,,Condo/Co-op,201 Harrison St #512,San Francisco,CA,94105,499900,0,1.0,San Francisco,,38449,1991,7,,576,Active,,,http://www.redfin.com/CA/San-Francisco/201-Harrison-St-94105/unit-512/home/727665,San Francisco MLS,421526440,N,Y,37.7875875,-122.3904715
MLS Listing,,Condo/Co-op,201 Harrison St #405,San Francisco,CA,94105,648888,1,1.0,San Francisco,544,38449,1991,7,1193,627,Active,,,http://www.redfin.com/CA/San-Francisco/201-Harrison-St-94105/unit-405/home/1264012,San Francisco MLS,421526368,N,Y,37.7875875,-122.3904715
MLS Listing,,Condo/Co-op,338 Potrero Ave #801,San Francisco,CA,94103,849000,1,1.0,San Francisco,,11250,2017,7,,636,Active,,,http://www.redfin.com/CA/San-Francisco/338-Potrero-Ave-94103/unit-801/home/144063909,San Francisco MLS,421525876,N,Y,37.7651395,-122.4078164
MLS Listing,,Condo/Co-op,588 Minna St #203,San Francisco,CA,94109,699000,1,1.0,San Francisco,644,8084,2021,7,1085,556,Active,,,http://www.redfin.com/CA/San-Francisco/588-Minna-St-94103/unit-203/home/169632443,San Francisco MLS,421527836,N,Y,37.7790369,-122.4101047
MLS Listing,,Single Family Residential,437 Ellsworth St,San Francisco,CA,94110,2350000,3,3.5,San Francisco,,1750,,7,,,Active,,,http://www.redfin.com/CA/San-Francisco/437-Ellsworth-St-94110/home/2001228,San Francisco MLS,421520019,N,Y,37.7379374,-122.4144839
MLS Listing,,Condo/Co-op,388 Fulton St #211,SAN FRANCISCO,CA,94102,895000,2,1.0,SAN FRANCISCO,714,,2016,7,1254,638,Active,,,http://www.redfin.com/CA/San-Francisco/388-Fulton-St-94102/unit-211/home/109688253,MLSListings,ML81833778,N,Y,37.7790409,-122.4231102
MLS Listing,,Single Family Residential,1502 Shotwell St,San Francisco,CA,94110,2695000,3,2.0,San Francisco,2335,4200,1909,7,1154,,Active,,,http://www.redfin.com/CA/San-Francisco/1502-Shotwell-St-94110/home/1759761,San Francisco MLS,421527593,N,Y,37.744687,-122.415059
MLS Listing,,Single Family Residential,1390 Hampshire St,SAN FRANCISCO,CA,94110,1450000,3,1.0,SAN FRANCISCO,1217,2596,1926,7,1191,,Active,,,http://www.redfin.com/CA/San-Francisco/1390-Hampshire-St-94110/home/1911857,MLSListings,ML81833777,N,Y,37.750045,-122.407296
MLS Listing,,Condo/Co-op,701 - 1 Hampshire St,San Francisco,CA,94110,625000,1,1.0,San Francisco,600,,1960,7,1042,450,Active,,,http://www.redfin.com/CA/San-Francisco/701-Hampshire-St-94110/unit-102/home/1518942,San Francisco MLS,421527779,N,Y,37.7603979,-122.4078827
MLS Listing,,Condo/Co-op,2900 Pierce St #4,San Francisco,CA,94123,1395000,2,2.0,San Francisco,1131,3000,1914,7,1233,397,Active,,,http://www.redfin.com/CA/San-Francisco/2900-Pierce-St-94123/unit-4/home/26768399,San Francisco MLS,421527751,N,Y,37.7969221,-122.4386769
MLS Listing,,Condo/Co-op,10 Innes Ct #203,San Francisco,CA,94124,939000,3,2.0,San Francisco,1223,,2018,7,768,676,Active,,,http://www.redfin.com/CA/San-Francisco/10-Innes-Ct-94124/unit-203/home/166705157,"bridgeMLS, Bay East AOR, or Contra Costa AOR",40941075,N,Y,37.7280682,-122.3679965
MLS Listing,,Single Family Residential,1851 Newhall St,San Francisco,CA,94124,959000,3,2.0,San Francisco,1556,2665,1946,7,616,,Active,,,http://www.redfin.com/CA/San-Francisco/1851-Newhall-St-94124/home/1122174,San Francisco MLS,421527752,N,Y,37.7322721,-122.3950357
MLS Listing,,Single Family Residential,2 Castenada Ave,San Francisco,CA,94116,3995000,4,3.5,San Francisco,,9273,1926,7,,133,Active,,,http://www.redfin.com/CA/San-Francisco/2-Castenada-Ave-94116/home/683247,San Francisco MLS,421526309,N,Y,37.75074,-122.4624033
MLS Listing,,Condo/Co-op,2248 Mason St,San Francisco,CA,94133,1095000,2,1.0,San Francisco,930,2622,1912,7,1177,541,Active,,,http://www.redfin.com/CA/San-Francisco/2248-Mason-St-94133/home/44581809,San Francisco MLS,421524783,N,Y,37.8044351,-122.4131095
MLS Listing,,Single Family Residential,,San Francisco,CA,94112,950000,2,2.0,Ingelside,1758,2809,1922,7,540,,Active,,,http://www.redfin.com/CA/San-Francisco/Undisclosed-address-94112/home/1481153,"bridgeMLS, Bay East AOR, or Contra Costa AOR",40940323,N,Y,37.7206389,-122.4538672
MLS Listing,,Single Family Residential,1459 18th Ave,San Francisco,CA,94122,2298000,5,4.5,San Francisco,3100,2983,1926,7,741,,Active,,,http://www.redfin.com/CA/San-Francisco/1459-18th-Ave-94122/home/1812892,San Francisco MLS,421526566,N,Y,37.7606365,-122.4761016
MLS Listing,,Condo/Co-op,228 Liberty St,San Francisco,CA,94114,1995000,3,2.0,San Francisco,1845,2500,1938,7,1081,350,Active,,,http://www.redfin.com/CA/San-Francisco/228-Liberty-St-94114/home/973838,San Francisco MLS,421526598,N,Y,37.7576259,-122.4264981
MLS Listing,,Single Family Residential,774 Joost Ave,San Francisco,CA,94127,1250000,2,1.0,San Francisco,1260,2500,1913,7,992,,Active,,,http://www.redfin.com/CA/San-Francisco/774-Joost-Ave-94127/home/690999,San Francisco MLS,421526943,N,Y,37.732542,-122.452858
MLS Listing,,Single Family Residential,3817 Folsom St,San Francisco,CA,94110,1350000,3,,San Francisco,,1751,1923,7,,,Active,,,http://www.redfin.com/CA/San-Francisco/3817-Folsom-St-94110/unit-3817A/home/1583514,San Francisco MLS,421527627,N,Y,37.7386924,-122.4131786
MLS Listing,,Single Family Residential,224 Upper Ter,San Francisco,CA,94117,4295000,4,3.5,San Francisco,3125,2474,,7,1374,,Active,,,http://www.redfin.com/CA/San-Francisco/224-Upper-Ter-94117/home/2031486,San Francisco MLS,421526609,N,Y,37.7635081,-122.4448469
MLS Listing,,Single Family Residential,131 Wilmot St,San Francisco,CA,94115,1688000,2,2.5,San Francisco,,757,1900,7,,,Active,,,http://www.redfin.com/CA/San-Francisco/131-Wilmot-St-94115/home/1498661,San Francisco MLS,421521377,N,Y,37.7872697,-122.4348363
MLS Listing,,Condo/Co-op,2415 Van Ness Ave #306,San Francisco,CA,94109,695000,1,1.0,San Francisco,566,5520,1926,7,1228,650,Active,,,http://www.redfin.com/CA/San-Francisco/2415-Van-Ness-Ave-94109/unit-306/home/1425918,San Francisco MLS,421516616,N,Y,37.7978846,-122.4242425
MLS Listing,,Condo/Co-op,950 Tennessee St #321,San Francisco,CA,94107,1149000,1,1.0,San Francisco,902,,2020,7,1274,544,Active,,,http://www.redfin.com/CA/San-Francisco/950-Tennessee-St-94107/unit-321/home/171028714,San Francisco MLS,421527457,N,Y,37.7596747,-122.3898245
MLS Listing,,Condo/Co-op,950 Tennessee St #119,San Francisco,CA,94107,619000,0,1.0,San Francisco,460,,2020,7,1346,435,Active,,,http://www.redfin.com/CA/San-Francisco/950-Tennessee-St-94107/unit-119/home/174673039,San Francisco MLS,421527456,N,Y,37.7596747,-122.3898245
MLS Listing,,Condo/Co-op,950 Tennessee St #112,San Francisco,CA,94107,609800,0,1.0,San Francisco,460,,2020,7,1326,435,Active,,,http://www.redfin.com/CA/San-Francisco/950-Tennessee-St-94107/unit-112/home/174673038,San Francisco MLS,421527372,N,Y,37.7596747,-122.3898245
MLS Listing,,Condo/Co-op,441 Waller St,San Francisco,CA,94117,1295000,3,1.5,San Francisco,1421,1870,1900,8,911,298,Active,,,http://www.redfin.com/CA/San-Francisco/441-Waller-St-94117/home/103968002,San Francisco MLS,421526492,N,Y,37.7710125,-122.4309724
MLS Listing,,Single Family Residential,1370 28th Ave,San Francisco,CA,94122,1995000,5,3.5,San Francisco,2768,2996,1924,8,721,,Active,,,http://www.redfin.com/CA/San-Francisco/1370-28th-Ave-94122/home/1119231,San Francisco MLS,421527458,N,Y,37.7618535,-122.4863713
MLS Listing,,Single Family Residential,26 Presidio Ter,San Francisco,CA,94118,14500000,6,8.0,San Francisco,9405,10284,1909,8,1542,724,Active,,,http://www.redfin.com/CA/San-Francisco/26-Presidio-Ter-94118/home/1899364,San Francisco MLS,421526366,N,Y,37.7876461,-122.4601477
MLS Listing,,Single Family Residential,122 Avila,San Francisco,CA,94123,4000000,3,2.5,San Francisco,2760,2496,,8,1449,,Active,,,http://www.redfin.com/CA/San-Francisco/122-Avila-St-94123/home/1171248,San Francisco MLS,421526197,N,Y,37.8016565,-122.4403899
MLS Listing,,Condo/Co-op,672 Clipper St #2,San Francisco,CA,94114,1985000,3,3.0,San Francisco,2103,2946,2000,8,944,283,Active,,,http://www.redfin.com/CA/San-Francisco/672-Clipper-St-94114/unit-2/home/1907983,San Francisco MLS,421527132,N,Y,37.748887,-122.4393972
MLS Listing,,Single Family Residential,1457 23rd Ave,San Francisco,CA,94122,1349000,3,1.0,San Francisco,1385,3000,,8,974,,Active,,,http://www.redfin.com/CA/San-Francisco/1457-23rd-Ave-94122/home/630466,San Francisco MLS,421527374,N,Y,37.7604363,-122.4815516
MLS Listing,,Condo/Co-op,601 Van Ness Ave #424,San Francisco,CA,94102,649000,1,1.0,San Francisco,834,105806,1982,8,778,940,Active,,,http://www.redfin.com/CA/San-Francisco/601-Van-Ness-Ave-94102/unit-424/home/1546540,San Francisco MLS,421527514,N,Y,37.7813857,-122.4214063
MLS Listing,,Condo/Co-op,1312 California St,San Francisco,CA,94109,1395000,3,2.0,San Francisco,1479,,1911,8,943,400,Active,,,http://www.redfin.com/CA/San-Francisco/1312-California-St-94109/home/1304416,San Francisco MLS,512064,N,Y,37.791374,-122.416141
MLS Listing,,Multi-Family (2-4 Unit),767 - 771 Pine St,San Francisco,CA,94108,3495000,9,7.5,San Francisco,4605,1376,1909,8,759,,Active,,,http://www.redfin.com/CA/San-Francisco/767-Pine-St-94108/home/553515,San Francisco MLS,421526907,N,Y,37.7909713,-122.4084739
MLS Listing,,Single Family Residential,631 Shotwell St,San Francisco,CA,94110,925000,3,1.5,San Francisco,1350,1999,1900,8,685,,Active,,,http://www.redfin.com/CA/San-Francisco/631-Shotwell-St-94110/home/712970,San Francisco MLS,421527367,N,Y,37.7583296,-122.4155016
MLS Listing,,Single Family Residential,3675 Clay St,San Francisco,CA,94118,5250000,4,4.0,San Francisco,5003,3881,1904,8,1049,,Active,,,http://www.redfin.com/CA/San-Francisco/3675-Clay-St-94118/home/586356,San Francisco MLS,421526166,N,Y,37.7880387,-122.4532986
MLS Listing,,Condo/Co-op,555 Golden Gate Ave Unit 2C,San Francisco,CA,94102,948000,2,2.0,San Francisco,912,,2020,8,1039,632,Active,,,http://www.redfin.com/CA/San-Francisco/555-Golden-Gate-Ave-94102/unit-2C/home/174668319,San Francisco MLS,421526920,N,Y,37.7808655,-122.4196054
MLS Listing,,Condo/Co-op,555 Golden Gate Ave Unit 1A,San Francisco,CA,94102,649000,1,1.0,San Francisco,568,,2021,8,1143,553,Active,,,http://www.redfin.com/CA/San-Francisco/555-Golden-Gate-Ave-94102/unit-1A/home/174668298,San Francisco MLS,421527363,N,Y,37.7808655,-122.4196054
MLS Listing,,Condo/Co-op,225 Arkansas St,San Francisco,CA,94107,899000,2,1.0,San Francisco,1025,,1900,8,877,,Active,,,http://www.redfin.com/CA/San-Francisco/225-Arkansas-St-94107/home/1965837,San Francisco MLS,421526935,N,Y,37.7632217,-122.3983105
MLS Listing,,Condo/Co-op,225 - 1/2 Arkansas St,San Francisco,CA,94107,1150000,2,1.0,San Francisco,1145,,1900,8,1004,,Active,,,http://www.redfin.com/CA/San-Francisco/1-Arkansas-St-94107/home/173950935,San Francisco MLS,421526936,N,Y,37.7660962,-122.3984986
MLS Listing,,Condo/Co-op,666 Post St #603,San Francisco,CA,94109,699000,1,1.0,San Francisco,831,3783,1926,8,841,864,Active,,,http://www.redfin.com/CA/San-Francisco/666-Post-St-94109/unit-603/home/12400468,San Francisco MLS,512628,N,Y,37.7879056,-122.4129007
MLS Listing,,Single Family Residential,1495 11th Ave,San Francisco,CA,94122,2995000,5,5.0,San Francisco,3450,1376,,8,868,,Active,,,http://www.redfin.com/CA/San-Francisco/1495-11th-Ave-94122/home/1052033,San Francisco MLS,421523070,N,Y,37.7603583,-122.4684254
MLS Listing,,Condo/Co-op,1868 Van Ness Ave #502,San Francisco,CA,94109,1450000,2,2.0,San Francisco,1105,9202,2017,8,1312,745,Active,,,http://www.redfin.com/CA/San-Francisco/1868-Van-Ness-Ave-94109/unit-502/home/167259013,San Francisco MLS,421526670,N,Y,37.7929464,-122.422437
MLS Listing,,Single Family Residential,9 Vista View Ct,San Francisco,CA,94124,799000,2,2.0,San Francisco,1301,1512,1986,8,614,426,Active,,,http://www.redfin.com/CA/San-Francisco/9-Vistaview-Ct-94124/home/750415,San Francisco MLS,421526905,N,Y,37.7335509,-122.3951948
MLS Listing,,Multi-Family (2-4 Unit),261 - 263 Cumberland St,San Francisco,CA,94114,1995000,4,3.0,San Francisco,3244,2848,,8,615,,Active,,,http://www.redfin.com/CA/San-Francisco/261-Cumberland-St-94114/home/1613139,San Francisco MLS,421526222,N,Y,37.7585637,-122.4294274
MLS Listing,,Condo/Co-op,565 14th St #1,San Francisco,CA,94103,1195000,2,1.0,San Francisco,,,1924,8,,394,Active,,,http://www.redfin.com/CA/San-Francisco/565-14th-St-94103/unit-1/home/1286061,San Francisco MLS,421526922,N,Y,37.7677142,-122.4257421
MLS Listing,,Condo/Co-op,3110 California St Unit 2A,San Francisco,CA,94115,1350000,3,2.0,San Francisco,1369,4000,2004,8,986,713,Active,,,http://www.redfin.com/CA/San-Francisco/3110-California-St-94115/unit-2-A/home/171943523,San Francisco MLS,421524717,N,Y,37.7876266,-122.4458433
MLS Listing,,Condo/Co-op,2042 Grove St,San Francisco,CA,94117,1599000,3,1.0,San Francisco,1704,3421,1925,9,938,200,Active,,,http://www.redfin.com/CA/San-Francisco/2042-Grove-St-94117/home/12277447,San Francisco MLS,421516878,N,Y,37.77465,-122.450268
MLS Listing,,Condo/Co-op,53 Prospect Ave,San Francisco,CA,94110,799000,2,1.0,San Francisco,875,1735,1900,9,913,,Active,,,http://www.redfin.com/CA/San-Francisco/53-Prospect-Ave-94110/home/21966154,San Francisco MLS,421526430,N,Y,37.7440147,-122.4180966
MLS Listing,,Condo/Co-op,301 Mission St Unit 5C,SAN FRANCISCO,CA,94105,920000,1,1.0,SAN FRANCISCO,833,,2009,9,1104,1547,Active,,,http://www.redfin.com/CA/San-Francisco/301-Mission-St-94105/unit-5C/home/40142377,MLSListings,ML81833472,N,Y,37.7903824,-122.3961531
MLS Listing,,Condo/Co-op,74 New Montgomery St #203,San Francisco,CA,94105,595000,1,1.0,San Francisco,592,17865,1914,9,1005,869,Active,,,http://www.redfin.com/CA/San-Francisco/74-New-Montgomery-St-94105/unit-203/home/17305587,San Francisco MLS,421526908,N,Y,37.7874578,-122.4013098
MLS Listing,,Condo/Co-op,1483 Sutter St #423,San Francisco,CA,94109,585000,0,1.0,San Francisco,530,48636,1993,9,1104,672,Active,,,http://www.redfin.com/CA/San-Francisco/1483-Sutter-St-94109/unit-423/home/1587427,San Francisco MLS,421526904,N,Y,37.7867158,-122.4242025
MLS Listing,,Condo/Co-op,821 Folsom St #401,San Francisco,CA,94107,699000,1,1.0,San Francisco,652,28875,2004,9,1072,510,Active,,,http://www.redfin.com/CA/San-Francisco/821-Folsom-St-94107/unit-401/home/12401856,San Francisco MLS,421525814,N,Y,37.7813849,-122.4013601
MLS Listing,,Condo/Co-op,3139 Gough St,San Francisco,CA,94123,2995000,4,2.5,San Francisco,2202,2812,1923,9,1360,577,Active,,,http://www.redfin.com/CA/San-Francisco/3139-Gough-St-94123/home/55244628,San Francisco MLS,421524443,N,Y,37.802391,-122.428447
MLS Listing,,Single Family Residential,90 Byxbee St,San Francisco,CA,94132,1098888,2,1.0,Merced Heights,1165,2495,1940,9,943,,Active,,,http://www.redfin.com/CA/San-Francisco/90-Byxbee-St-94132/home/1728883,"bridgeMLS, Bay East AOR, or Contra Costa AOR",40938997,N,Y,37.7159206,-122.4695909
MLS Listing,,Single Family Residential,3837 18th St,San Francisco,CA,94114,2495000,3,3.0,San Francisco,2081,2848,1900,9,1199,,Active,,,http://www.redfin.com/CA/San-Francisco/3837-18th-St-94114/home/1939104,San Francisco MLS,421526318,N,Y,37.7609939,-122.429206
MLS Listing,,Single Family Residential,357 Vicente St,SAN FRANCISCO,CA,94127,3499000,5,4.5,SAN FRANCISCO,3965,2765,1986,9,882,,Active,,,http://www.redfin.com/CA/San-Francisco/357-Vicente-St-94127/home/670648,MLSListings,ML81833400,N,Y,37.7393256,-122.4709387
MLS Listing,,Multi-Family (2-4 Unit),2924 Fillmore St,San Francisco,CA,94123,2950000,4,2.0,San Francisco,3106,2622,1910,9,950,,Active,,,http://www.redfin.com/CA/San-Francisco/2924-Fillmore-St-94123/home/1538789,San Francisco MLS,421526901,N,Y,37.7965823,-122.4351135
MLS Listing,,Single Family Residential,405 Beacon St,San Francisco,CA,94131-2207,1899900,3,2.0,San Francisco,1309,4183,1970,9,1451,,Active,,,http://www.redfin.com/CA/San-Francisco/405-Beacon-St-94131/home/1086259,"bridgeMLS, Bay East AOR, or Contra Costa AOR",40940700,N,Y,37.7415848,-122.4346286
MLS Listing,,Condo/Co-op,1731 Larkin #3,San Francisco,CA,94901,1449000,2,2.0,Nob Hill,1084,,1908,9,1337,475,Active,,,http://www.redfin.com/CA/San-Francisco/1731-Larkin-St-94109/unit-3/home/148073246,"bridgeMLS, Bay East AOR, or Contra Costa AOR",40940699,N,Y,37.7938381,-122.4200106
MLS Listing,,Condo/Co-op,223 Sanchez St,San Francisco,CA,94114,1250000,2,2.0,San Francisco,1165,3125,1900,9,1073,307,Active,,,http://www.redfin.com/CA/San-Francisco/223-Sanchez-St-94114/home/706699,San Francisco MLS,421526894,N,Y,37.7654547,-122.4306297
MLS Listing,,Condo/Co-op,3525 16th St,San Francisco,CA,94114,1695000,3,3.0,San Francisco,1600,2587,1938,9,1059,250,Active,,,http://www.redfin.com/CA/San-Francisco/3525-16th-St-94114/home/1985670,San Francisco MLS,421526540,N,Y,37.764085,-122.431476
MLS Listing,,Condo/Co-op,1650 Broadway #304,San Francisco,CA,94109,1595000,2,2.0,San Francisco,1160,13547,2016,9,1375,1094,Active,,,http://www.redfin.com/CA/San-Francisco/1650-Broadway-94109/unit-304/home/101683268,San Francisco MLS,421524677,N,Y,37.7959245,-122.424407
MLS Listing,,Single Family Residential,1318 - 1320 23rd Ave,San Francisco,CA,94122,1499000,4,2.5,San Francisco,,2996,1923,9,,,Active,,,http://www.redfin.com/CA/San-Francisco/1318-23rd-Ave-94122/home/1812881,San Francisco MLS,421526565,N,Y,37.7629787,-122.4811306
MLS Listing,,Single Family Residential,1400 York St,San Francisco,CA,94110,1600000,4,3.5,San Francisco,2115,1875,1922,9,757,,Active,,,http://www.redfin.com/CA/San-Francisco/1400-York-St-94110/home/1213242,San Francisco MLS,510858,N,Y,37.7495286,-122.4081233
MLS Listing,,Vacant Land,700 Jamestown Ave,San Francisco,CA,94124,500000,0,,San Francisco,,2500,,10,,,Active,,,http://www.redfin.com/CA/San-Francisco/700-Jamestown-Ave-94124/home/22045301,San Francisco MLS,421526732,N,Y,37.7147392,-122.3888916
MLS Listing,,Single Family Residential,2750 Cabrillo St,San Francisco,CA,94121,2450000,5,5.5,San Francisco,4800,2696,,10,510,,Active,,,http://www.redfin.com/CA/San-Francisco/2750-Cabrillo-St-94121/unit-V/home/110055158,San Francisco MLS,421526754,N,Y,37.7745127,-122.4884257
MLS Listing,,Condo/Co-op,708 Long Bridge St #708,San Francisco,CA,94158,1658000,2,2.0,City,1243,84866,2016,10,1334,1180,Active,,,http://www.redfin.com/CA/San-Francisco/708-Long-Bridge-St-94158/unit-708/home/109464819,"bridgeMLS, Bay East AOR, or Contra Costa AOR",40940630,N,Y,37.7720304,-122.3935768
MLS Listing,,Condo/Co-op,601 Van Ness Ave #1045,San Francisco,CA,94102,830000,2,2.0,San Francisco,894,105806,1982,10,928,1040,Active,,,http://www.redfin.com/CA/San-Francisco/601-Van-Ness-Ave-94102/unit-1045/home/1523287,San Francisco MLS,421526375,N,Y,37.7813857,-122.4214063
MLS Listing,,Condo/Co-op,1221 Harrison St #25,San Francisco,CA,94103,925000,1,2.0,San Francisco,1404,,2004,10,659,739,Active,,,http://www.redfin.com/CA/San-Francisco/1221-Harrison-St-94103/unit-25/home/22898536,San Francisco MLS,512322,N,Y,37.7731031,-122.4086736
MLS Listing,,Multi-Family (5+ Unit),301 Lyon St,San Francisco,CA,94117,3400000,2,,San Francisco,8498,3125,1902,10,400,,Active,,,http://www.redfin.com/CA/San-Francisco/301-Lyon-St-94117/home/28891002,San Francisco MLS,421526642,N,Y,37.7736435,-122.4428194
MLS Listing,,Single Family Residential,118 Hamerton Ave,SAN FRANCISCO,CA,94131,950000,3,1.0,SAN FRANCISCO,1063,2495,1943,10,894,,Active,,,http://www.redfin.com/CA/San-Francisco/118-Hamerton-Ave-94131/home/811184,MLSListings,ML81833182,N,Y,37.7338511,-122.4378879
MLS Listing,,Condo/Co-op,614 Natoma St Unit 616A,San Francisco,CA,94103,1095000,5,3.5,San Francisco,1508,1875,1906,10,726,,Active,,,http://www.redfin.com/CA/San-Francisco/614-Natoma-St-94103/unit-616A/home/174651587,San Francisco MLS,421526364,N,Y,37.7781643,-122.4105864
MLS Listing,,Single Family Residential,1072 Noe St,San Francisco,CA,94114,5500000,4,5.5,San Francisco,,2678,1900,10,,,Active,,,http://www.redfin.com/CA/San-Francisco/1072-Noe-St-94114/home/1247363,San Francisco MLS,421516154,N,Y,37.7518339,-122.4322365
MLS Listing,,Condo/Co-op,601 Van Ness Ave #507,San Francisco,CA,94102,475000,1,1.0,San Francisco,583,,1982,11,815,820,Active,,,http://www.redfin.com/CA/San-Francisco/601-Van-Ness-Ave-94102/unit-507/home/1948232,"bridgeMLS, Bay East AOR, or Contra Costa AOR",40940541,N,Y,37.7813857,-122.4214063
MLS Listing,,Single Family Residential,2582 19th Ave,San Francisco,CA,94116,998000,3,,San Francisco,1656,2475,1932,11,603,,Active,,,http://www.redfin.com/CA/San-Francisco/2582-19th-Ave-94116/home/1453704,San Francisco MLS,421519798,N,Y,37.73969,-122.475094
MLS Listing,,Multi-Family (5+ Unit),3362 - 3372 24th St,San Francisco,CA,94110,3380000,6,,San Francisco,8060,4369,1900,11,419,,Active,,,http://www.redfin.com/CA/San-Francisco/3362-24th-St-94110/home/1890166,San Francisco MLS,421526477,N,Y,37.7523282,-122.4199794
MLS Listing,,Condo/Co-op,555 Fulton St #223,San Francisco,CA,94102,729000,1,1.0,San Francisco,716,,,11,1018,680,Active,,,http://www.redfin.com/CA/San-Francisco/555-Fulton-St-94102/unit-223/home/88572560,San Francisco MLS,421526472,N,Y,37.7781581,-122.4261091
MLS Listing,,Multi-Family (2-4 Unit),1021 - 1023 Noe St,San Francisco,CA,94114,2999000,6,2.5,San Francisco,4164,3171,1910,11,720,,Active,,,http://www.redfin.com/CA/San-Francisco/1021-Noe-St-94114/home/2008664,San Francisco MLS,421526434,N,Y,37.7526751,-122.4316263
MLS Listing,,Single Family Residential,333 Diamond St,San Francisco,CA,94114,6500000,5,7.0,San Francisco,5190,3125,1900,11,1252,,Active,,,http://www.redfin.com/CA/San-Francisco/333-Diamond-St-94114/unit-333A/home/2000437,San Francisco MLS,421526441,N,Y,37.7570512,-122.4365083
MLS Listing,,Multi-Family (5+ Unit),1200 - 1202 Treat Ave,San Francisco,CA,94110,5100000,0,,San Francisco,9528,4347,1900,11,535,,Active,,,http://www.redfin.com/CA/San-Francisco/1200-Treat-Ave-94110/home/1150550,San Francisco MLS,421526424,N,Y,37.7507969,-122.4130766
MLS Listing,,Condo/Co-op,270 Valencia St #502,San Francisco,CA,94103,675000,1,1.0,San Francisco,601,,2005,11,1123,800,Active,,,http://www.redfin.com/CA/San-Francisco/270-Valencia-St-94103/unit-502/home/11743574,San Francisco MLS,421526376,N,Y,37.7685208,-122.4225934
MLS Listing,,Condo/Co-op,765 Market St Unit 30C,San Francisco,CA,94103,2495000,1,1.5,San Francisco,947,60150,2001,11,2635,2200,Active,,,http://www.redfin.com/CA/San-Francisco/765-Market-St-94103/unit-30C/home/1585989,San Francisco MLS,421524522,N,Y,37.786097,-122.4041629
MLS Listing,,Single Family Residential,1669 Alabama St,San Francisco,CA,94110,3395000,5,4.0,San Francisco,3040,2622,1900,11,1117,,Active,,,http://www.redfin.com/CA/San-Francisco/1669-Alabama-St-94110/home/1005553,San Francisco MLS,421525615,N,Y,37.746032,-122.4102915
MLS Listing,,Condo/Co-op,16 Jessie St #107,San Francisco,CA,94105,719000,1,2.0,San Francisco,953,,,11,754,574,Active,,,http://www.redfin.com/CA/San-Francisco/16-Jessie-94105/unit-107/home/39554969,San Francisco MLS,421525203,N,Y,37.7899062,-122.3989561
MLS Listing,,Condo/Co-op,2310 Hyde #1,San Francisco,CA,94109,5495000,3,3.5,San Francisco,3746,5695,1976,11,1467,,Active,,,http://www.redfin.com/CA/San-Francisco/2310-Hyde-St-94109/unit-1/home/1968033,San Francisco MLS,421521468,N,Y,37.802212,-122.4193866
MLS Listing,,Condo/Co-op,601 Van Ness Ave #1108,San Francisco,CA,94102,499000,0,1.0,San Francisco,489,105806,1982,11,1020,820,Active,,,http://www.redfin.com/CA/San-Francisco/601-Van-Ness-Ave-94102/unit-1108/home/1562164,San Francisco MLS,421525714,N,Y,37.7813857,-122.4214063
MLS Listing,,Condo/Co-op,3131 Pierce St #302,San Francisco,CA,94123,1095000,1,1.0,San Francisco,719,,,11,1523,888,Active,,,http://www.redfin.com/CA/San-Francisco/3131-Pierce-St-94123/unit-302/home/174645268,San Francisco MLS,421524709,N,Y,37.7989393,-122.4394875
MLS Listing,,Condo/Co-op,3131 Pierce St #403,San Francisco,CA,94123,2295000,2,2.5,San Francisco,1374,,,11,1670,1241,Active,,,http://www.redfin.com/CA/San-Francisco/3131-Pierce-St-94123/unit-403/home/174645267,San Francisco MLS,421524699,N,Y,37.7989393,-122.4394875
MLS Listing,,Condo/Co-op,3131 Pierce St #101,San Francisco,CA,94123,2495000,2,2.5,San Francisco,1731,,,11,1441,888,Active,,,http://www.redfin.com/CA/San-Francisco/3131-Pierce-St-94123/unit-101/home/174645231,San Francisco MLS,421524710,N,Y,37.7989393,-122.4394875
MLS Listing,,Condo/Co-op,3131 Pierce St #303,San Francisco,CA,94123,1695000,2,2.0,San Francisco,1200,,,11,1413,1137,Active,,,http://www.redfin.com/CA/San-Francisco/3131-Pierce-St-94123/unit-303/home/174645191,San Francisco MLS,421524706,N,Y,37.7989393,-122.4394875
MLS Listing,,Condo/Co-op,640 Davis St #48,San Francisco,CA,94111,1758000,2,2.0,San Francisco,1471,,,11,1195,1394,Active,,,http://www.redfin.com/CA/San-Francisco/640-Davis-St-94111/unit-48/home/1197862,San Francisco MLS,421522621,N,Y,37.7984402,-122.3983806
MLS Listing,,Condo/Co-op,1649 Cabrillo St #1649,San Francisco,CA,94121,778000,2,2.0,San Francisco,820,2063,1922,11,949,,Active,,,http://www.redfin.com/CA/San-Francisco/1649-Cabrillo-St-94121/unit-1649/home/174643643,San Francisco MLS,421522714,N,Y,37.7746619,-122.476582
MLS Listing,,Condo/Co-op,2101 Baker St #12,San Francisco,CA,94115,925000,1,1.0,San Francisco,807,5776,1964,11,1146,486,Active,,,http://www.redfin.com/CA/San-Francisco/2101-Baker-St-94115/unit-12/home/588408,San Francisco MLS,421524712,N,Y,37.790532,-122.444561
MLS Listing,,Single Family Residential,1 Ignacio Ave,San Francisco,CA,94124,1500000,3,3.0,San Francisco,2044,7660,1941,12,734,,Active,,,http://www.redfin.com/CA/San-Francisco/1-Ignacio-Ave-94124/home/2008884,San Francisco MLS,421526049,N,Y,37.7151706,-122.3887439
MLS Listing,,Multi-Family (2-4 Unit),272 - 276 Hermann St,San Francisco,CA,94117,1995000,7,2.0,San Francisco,3750,1625,1890,12,532,,Active,,,http://www.redfin.com/CA/San-Francisco/272-Hermann-St-94117/home/174643138,San Francisco MLS,421526192,N,Y,37.770479,-122.4296425
MLS Listing,,Condo/Co-op,16 Ord Ct #1,San Francisco,CA,94114,845000,1,1.0,San Francisco,,2709,1958,12,,300,Active,,,http://www.redfin.com/CA/San-Francisco/16-Ord-Ct-94114/unit-1/home/1316293,San Francisco MLS,421525944,N,Y,37.763774,-122.4403985
MLS Listing,,Multi-Family (5+ Unit),5201-5205 Mission St,SAN FRANCISCO,CA,94112,3000000,,,SAN FRANCISCO,3667,2800,1925,12,818,,Active,,,http://www.redfin.com/CA/San-Francisco/5201-Mission-St-94112/home/1614735,MLSListings,ML81832952,N,Y,37.7150291,-122.4417815
MLS Listing,,Single Family Residential,455 Lakeshore Dr,San Francisco,CA,94132,1675000,5,3.0,San Francisco,2000,3136,1954,12,838,,Active,,,http://www.redfin.com/CA/San-Francisco/455-Lakeshore-Dr-94132/home/836867,San Francisco MLS,421526138,N,Y,37.7329866,-122.4947721
MLS Listing,,Condo/Co-op,1360 Montgomery St Unit 11 and 12,SAN FRANCISCO,CA,94133,10995000,4,4.0,SAN FRANCISCO,2618,,1936,13,4200,2215,Active,,,http://www.redfin.com/CA/San-Francisco/1360-Montgomery-St-94133/unit-11-and-12/home/174641742,MLSListings,ML81832944,N,Y,37.8017784,-122.4044008
MLS Listing,,Condo/Co-op,1001 California St #3,San Francisco,CA,94108,9900000,2,2.5,San Francisco,3474,4693,1914,13,2850,5999,Active,,,http://www.redfin.com/CA/San-Francisco/1001-California-St-94108/unit-3/home/170558195,San Francisco MLS,421515901,N,Y,37.7916283,-122.4110601
MLS Listing,,Condo/Co-op,637 Powell St #502,San Francisco,CA,94108,1365000,2,1.0,San Francisco,,,1923,13,,889,Active,,,http://www.redfin.com/CA/San-Francisco/637-Powell-St-94108/unit-502/home/1216614,San Francisco MLS,421526098,N,Y,37.7906336,-122.4091834
MLS Listing,,Single Family Residential,238 Thrift St,San Francisco,CA,94112,1395000,5,4.0,San Francisco,2199,3123,1925,13,634,,Active,,,http://www.redfin.com/CA/San-Francisco/238-Thrift-St-94112/home/1902122,"bridgeMLS, Bay East AOR, or Contra Costa AOR",40940364,N,Y,37.7176149,-122.4605458
MLS Listing,,Condo/Co-op,4132 3rd St #5,San Francisco,CA,94124,988000,2,2.0,San Francisco,1314,5425,2014,13,752,720,Active,,,http://www.redfin.com/CA/San-Francisco/4132-3rd-St-94124/unit-5/home/63499201,San Francisco MLS,421525853,N,Y,37.7398859,-122.3892773
MLS Listing,,Single Family Residential,2780 Broadway,San Francisco,CA,94115,19995000,4,5.5,San Francisco,6000,3461,1962,13,3333,,Active,,,http://www.redfin.com/CA/San-Francisco/2780-Broadway-94115/home/1227830,San Francisco MLS,421525664,N,Y,37.79358,-122.442803
MLS Listing,,Single Family Residential,59 Manor Dr,San Francisco,CA,94127,2198000,4,3.0,San Francisco,3071,3009,1930,14,716,,Active,,,http://www.redfin.com/CA/San-Francisco/59-Manor-Dr-94127/home/1043562,San Francisco MLS,421525759,N,Y,37.7275678,-122.4647473
MLS Listing,,Townhouse,14 Jennifer Pl,San Francisco,CA,94107,1029000,2,1.0,San Francisco,1284,,2000,14,801,129,Active,,,http://www.redfin.com/CA/San-Francisco/14-Jennifer-Pl-94107/home/12396903,San Francisco MLS,511830,N,Y,37.7800298,-122.4023817
MLS Listing,,Condo/Co-op,839 Hayes St,San Francisco,CA,94117,1595000,4,1.5,San Francisco,1997,3444,,14,799,,Active,,,http://www.redfin.com/CA/San-Francisco/839-Hayes-St-94117/home/40628987,San Francisco MLS,421525790,N,Y,37.7757504,-122.4302457
MLS Listing,,Condo/Co-op,175 Bluxome St #232,SAN FRANCISCO,CA,94107,785000,2,1.0,SAN FRANCISCO,874,,1998,14,898,561,Active,,,http://www.redfin.com/CA/San-Francisco/175-Bluxome-St-94107/unit-232/home/12397921,MLSListings,ML81832790,N,Y,37.7743789,-122.3995747
MLS Listing,,Multi-Family (2-4 Unit),811 Oak St,San Francisco,CA,94117,4495000,18,10.0,San Francisco,5725,2548,1900,14,785,,Active,,,http://www.redfin.com/CA/San-Francisco/811-Oak-St-94117/home/581165,San Francisco MLS,421525864,N,Y,37.7734934,-122.4326977
MLS Listing,,Condo/Co-op,401 Harrison St Unit 43A,San Francisco,CA,94105,1750000,2,2.0,San Francisco,1078,,2014,14,1623,1356,Active,,,http://www.redfin.com/CA/San-Francisco/401-Harrison-St-94105/unit-43A/home/144064330,San Francisco MLS,421525772,N,Y,37.7864989,-122.3921487
MLS Listing,,Condo/Co-op,207 King St #411,San Francisco,CA,94107,1539000,1,2.0,San Francisco,1461,21096,2007,14,1053,940,Active,,,http://www.redfin.com/CA/San-Francisco/207-King-St-94107/unit-411/home/12278052,San Francisco MLS,421519960,N,Y,37.7775275,-122.3916855
MLS Listing,,Single Family Residential,3259 - 3261 Clay St,San Francisco,CA,94115,8995000,6,6.5,San Francisco,6000,3681,1912,14,1499,,Active,,,http://www.redfin.com/CA/San-Francisco/3259-Clay-St-94115/home/1872257,San Francisco MLS,421522100,N,Y,37.788868,-122.4465838
MLS Listing,,Condo/Co-op,857 Fell St,San Francisco,CA,94117,1395000,3,2.0,San Francisco,1751,3391,1917,14,797,300,Active,,,http://www.redfin.com/CA/San-Francisco/857-Fell-St-94117/home/1956928,San Francisco MLS,421523775,N,Y,37.774505,-122.431884
MLS Listing,,Single Family Residential,1400 Golden Gate Ave,San Francisco,CA,94115,2495000,4,3.5,San Francisco,3260,11243,1885,14,765,344,Active,,,http://www.redfin.com/CA/San-Francisco/1400-Golden-Gate-Ave-94115/home/1059832,San Francisco MLS,421525499,N,Y,37.7795061,-122.4337916
MLS Listing,,Multi-Family (2-4 Unit),2209 Lincoln Way,San Francisco,CA,94122,1565000,4,2.0,San Francisco,2400,2500,,14,652,,Active,,,http://www.redfin.com/CA/San-Francisco/2209-Lincoln-Way-94122/home/1927235,San Francisco MLS,421525415,N,Y,37.7649813,-122.4818012
MLS Listing,,Condo/Co-op,11 Kenneth Rexroth Pl,San Francisco,CA,94133,1280000,2,2.0,San Francisco,1035,1330,1911,14,1237,150,Active,,,http://www.redfin.com/CA/San-Francisco/11-Kenneth-Rexroth-Pl-94133/home/28935690,San Francisco MLS,421525645,N,Y,37.7982752,-122.4080257
MLS Listing,,Condo/Co-op,501 Beale St Unit 12E,San Francisco,CA,94105,799000,1,1.0,San Francisco,759,,2006,14,1053,1018,Active,,,http://www.redfin.com/CA/San-Francisco/501-Beale-St-94105/unit-12E/home/22886337,San Francisco MLS,421525339,N,Y,37.7862533,-122.3891164
MLS Listing,,Condo/Co-op,3590 20th St #507,San Francisco,CA,94110,2295000,3,3.0,San Francisco,1671,11105,2015,14,1373,665,Active,,,http://www.redfin.com/CA/San-Francisco/3590-20th-St-94110/unit-507/home/79870143,San Francisco MLS,421525306,N,Y,37.7587508,-122.4209777
MLS Listing,,Condo/Co-op,1746 Bay St,San Francisco,CA,94123,2750000,3,2.0,San Francisco,2135,,1937,14,1288,350,Active,,,http://www.redfin.com/CA/San-Francisco/1746-Bay-St-94123/home/40011597,San Francisco MLS,512037,N,Y,37.8030751,-122.4358453
MLS Listing,,Multi-Family (2-4 Unit),483 - 485 28th St,San Francisco,CA,94131,2325000,5,3.0,San Francisco,2428,2779,1955,14,958,,Active,,,http://www.redfin.com/CA/San-Francisco/483-28th-St-94131/home/1095651,San Francisco MLS,421524810,N,Y,37.7447907,-122.4331321
MLS Listing,,Condo/Co-op,54 - 56 Elizabeth St #56,San Francisco,CA,94110,745000,2,1.0,San Francisco,709,2850,1900,14,,348,Active,,,http://www.redfin.com/CA/San-Francisco/54-Elizabeth-St-94110/unit-56/home/173374834,MetroList,421525598,N,Y,37.7530439,-122.4224448
MLS Listing,,Condo/Co-op,999 Wisconsin St #8,San Francisco,CA,94107,1259000,3,2.0,San Francisco,1906,9187,1988,14,661,591,Active,,,http://www.redfin.com/CA/San-Francisco/999-Wisconsin-St-94107/unit-8/home/1370559,San Francisco MLS,421524641,N,Y,37.7549789,-122.3984038
MLS Listing,,Multi-Family (5+ Unit),1069 Capp St,San Francisco,CA,94110,1995000,5,4.0,San Francisco,3737,2777,,14,534,,Active,,,http://www.redfin.com/CA/San-Francisco/1069-Capp-St-94110/home/109464713,San Francisco MLS,421521996,N,Y,37.7496209,-122.4168042
MLS Listing,,Single Family Residential,2454 - A Bush St,San Francisco,CA,94115,2695000,2,2.0,San Francisco,,2677,1880,14,,,Active,,,http://www.redfin.com/CA/San-Francisco/2454A-Bush-St-94115/home/174615988,San Francisco MLS,506872,N,Y,37.786917,-122.437799
MLS Listing,,Condo/Co-op,1495 Valencia St #4,San Francisco,CA,94110,1795000,3,3.0,San Francisco,1441,,2009,14,1246,404,Active,,,http://www.redfin.com/CA/San-Francisco/1495-Valencia-St-94110/unit-4/home/21963281,San Francisco MLS,514620,N,Y,37.7491382,-122.4200286
MLS Listing,,Vacant Land,350 Octavia St,SAN FRANCISCO,CA,94102,3350000,,,SAN FRANCISCO,,2178,,14,,,Active,,,http://www.redfin.com/CA/San-Francisco/350-Octavia-St-94102/home/169566615,MLSListings,ML81832658,N,Y,37.775532,-122.424014
MLS Listing,,Single Family Residential,3581 Clay St,San Francisco,CA,94118,6895000,4,4.5,San Francisco,3882,,,14,1776,,Active,,,http://www.redfin.com/CA/San-Francisco/3581-Clay-St-94118/home/1117709,San Francisco MLS,421525368,N,Y,37.788258,-122.451678
MLS Listing,,Single Family Residential,50 Hopkins Ave,San Francisco,CA,94131,2495000,3,3.0,San Francisco,2098,1315,1958,14,1189,,Active,,,http://www.redfin.com/CA/San-Francisco/50-Hopkins-Ave-94131/home/679118,San Francisco MLS,421524868,N,Y,37.7531816,-122.4444901
MLS Listing,,Condo/Co-op,460 Francisco St #302,San Francisco,CA,94133,720000,1,1.0,San Francisco,585,,1982,14,1231,273,Active,,,http://www.redfin.com/CA/San-Francisco/460-Francisco-St-94133/unit-302/home/1424818,San Francisco MLS,421524393,N,Y,37.8049401,-122.4128236
MLS Listing,,Condo/Co-op,425 1st St #2801,San Francisco,CA,94105,1795000,2,,San Francisco,1042,56024,2008,14,1723,1123,Active,,,http://www.redfin.com/CA/San-Francisco/425-1st-St-94105/unit-2801/home/17306457,San Francisco MLS,421522097,N,Y,37.7860625,-122.3921764
